City,State,Country,Latitude,Longitude,LCOH from solar field,Solar Field Capacity Factor,% of required energy from solar field,% of required energy from auxiliary resources,Water production,LCOW,CAPEX,OPEX
Adak Nas,AK,USA,51.883,-176.65,0.218454791,2.619596451,4.165158358,0,17278.13701,24.37677699,10.2475641,14.12921289
Ambler,AK,USA,67.1,-157.85,0.092905782,6.188311467,9.839415233,0,37815.09316,10.87681392,4.682240829,6.194573089
Anaktuvuk Pass,AK,USA,68.133,-151.733,0.10930632,5.259283436,8.362260663,0,32548.33968,12.67167161,5.439887232,7.231784381
Anchorage Elmendorf,AK,USA,61.25,-149.8,0.094495747,6.078840485,9.665356371,0,37163.5303,11.05965629,4.764331148,6.295325138
Anchorage Intl Ap,AK,USA,61.183,-150,0.099797718,5.749098398,9.141066453,0,35214.82662,11.65904261,5.027977008,6.631065601
Anchorage Merrill Field,AK,USA,61.217,-149.85,0.129157223,4.434515196,7.050879162,0,27639.80598,14.89428244,6.405949482,8.488332959
Aniak Airport,AK,USA,61.583,-159.533,0.082591095,6.932622136,11.0228692,0,41820.49503,9.776686925,4.233795365,5.54289156
Annette Island Ap,AK,USA,55.05,-131.567,0.104921169,5.424743096,8.625341523,0,32891.73768,12.34090306,5.383093616,6.957809439
Anvik,AK,USA,62.65,-160.183,0.068375203,8.376092163,13.31798654,0,50027.11842,8.182243473,3.539270161,4.642973312
Barrow W Post-w Rogers Arpt [nsa - Arm],AK,USA,71.32,-156.62,0.274091838,2.112199054,3.358396497,0,15076.94931,29.36680146,11.74366666,17.62313479
Bethel Airport,AK,USA,60.783,-161.833,0.11917479,4.813028469,7.652715265,0,29876.53826,13.78295906,5.926364268,7.856594789
Bettles Field,AK,USA,66.917,-151.517,0.082142652,7.032453017,11.1816003,0,42908.98911,9.638931991,4.126394782,5.512537209
Big Delta Allen Aaf,AK,USA,64,-145.717,0.087002727,6.606234894,10.50391348,0,40182.40054,10.22756837,4.406391813,5.821176556
Big River Lake,AK,USA,60.817,-152.3,0.096773827,5.911728467,9.399648263,0,35966.09231,11.36357654,4.922952085,6.440624459
Birchwood,AK,USA,61.417,-149.517,0.068922984,8.306800811,13.20781329,0,49620.85423,8.245948223,3.56824741,4.677700814
Chulitna,AK,USA,62.883,-149.833,0.272914104,2.09923262,3.337779866,0,14390.70175,29.8664652,12.30368151,17.56278369
Cold Bay Arpt,AK,USA,55.2,-162.717,0.274667216,2.079108245,3.30578211,0,14071.86895,30.26065353,12.5824497,17.67820383
Cordova,AK,USA,60.5,-145.5,0.139425236,4.09020658,6.503428462,0,25435.76423,16.10059599,6.961031079,9.139564908
Deadhorse,AK,USA,70.2,-148.483,0.271852283,2.124721108,3.378306562,0,15020.31269,29.27284558,11.78794784,17.48489774
Dillingham (amos),AK,USA,59.05,-158.517,0.123000719,4.6472968,7.389201912,0,28739.44212,14.26072833,6.160844202,8.099884128
Dutch Harbor,AK,USA,53.9,-166.55,0.291522019,1.955576923,3.109367308,0,13284.3764,32.07171735,13.32832669,18.74339066
Emmonak,AK,USA,62.783,-164.5,0.10311513,5.549499052,8.823703493,0,33924.90633,12.0608936,5.219154263,6.841739338
Fairbanks Eielson A,AK,USA,64.65,-147.1,0.109652862,5.259035972,8.361867196,0,32726.64637,12.66289953,5.410248835,7.252650692
Fairbanks Intl Arpt,AK,USA,64.817,-147.85,0.081890908,7.026013218,11.17136102,0,42640.20067,9.649888035,4.152406025,5.49748201
Fort Yukon,AK,USA,66.567,-145.267,0.064035041,9.019244672,14.34059903,0,54177.69224,7.634991577,3.268125815,4.366865763
Gambell,AK,USA,63.783,-171.75,0.135796542,4.225757123,6.718953825,0,26574.42429,15.56983877,6.66276617,8.907072604
Gulkana Intermediate Field,AK,USA,62.15,-145.45,0.090867437,6.337849349,10.07718047,0,38786.983,10.63004805,4.564917692,6.065130363
Gustavus,AK,USA,58.417,-135.7,0.088735038,6.441315104,10.24169102,0,38929.50632,10.48035865,4.54820529,5.932153356
Hayes River,AK,USA,61.983,-152.083,0.120617723,4.75259761,7.5566302,0,29502.82143,13.94947721,6.00143419,7.948043019
Healy River Airport,AK,USA,63.883,-149.017,0.183951687,3.115105568,4.953017853,0,20166.77489,20.72978603,8.779736195,11.95004984
Homer Arpt,AK,USA,59.65,-151.483,0.101904357,5.617715286,8.932167305,0,34335.23262,11.92180142,5.156782471,6.765018944
Hoonah,AK,USA,58.083,-135.45,0.092190284,6.197071599,9.853343842,0,37505.35885,10.87188129,4.720908551,6.150972737
Hooper Bay,AK,USA,61.517,-166.15,0.09395144,6.107324039,9.710645221,0,37252.98192,11.01410814,4.752891097,6.261217044
Huslia,AK,USA,65.7,-156.383,0.083518602,6.873427951,10.92875044,0,41630.89161,9.854085147,4.253077685,5.601007462
Hydaburg Seaplane,AK,USA,55.2,-132.833,0.094759123,6.019812523,9.571501911,0,36411.8683,11.1766465,4.86268251,6.31396399
Iliamna Arpt,AK,USA,59.75,-154.917,0.082344535,6.947569939,11.0466362,0,41856.97587,9.757580966,4.23010537,5.527475596
Juneau Int'l Arpt,AK,USA,58.35,-134.583,0.112612266,5.062408026,8.049228761,0,30938.7901,13.16674637,5.722889245,7.443857124
Kake Seaplane Base,AK,USA,56.967,-133.95,0.095214631,5.985778099,9.517387178,0,36145.82502,11.24158375,4.8984731,6.343110651
Kenai Municipal Ap,AK,USA,60.583,-151.233,0.073261699,7.807010755,12.4131471,0,46730.85606,8.741477321,3.788919729,4.952557592
Ketchikan Intl Ap,AK,USA,55.367,-131.717,0.111119315,5.158785049,8.202468227,0,31808.39676,12.91385916,5.566432225,7.347426939
King Salmon Arpt,AK,USA,58.683,-156.65,0.137055105,4.184127178,6.652762212,0,26281.26405,15.72412661,6.737087202,8.987039407
Kodiak Airport,AK,USA,57.75,-152.5,0.105944683,5.382099433,8.557538099,0,32745.93754,12.42906438,5.407061577,7.022002802
Kotzebue Ralph Wein Memorial,AK,USA,66.883,-162.6,0.095252702,6.047074062,9.614847759,0,37135.38182,11.11041815,4.767942483,6.342475662
Lake Hood Seaplane,AK,USA,61.183,-149.967,0.059995892,9.562631688,15.20458438,0,56879.9539,7.225003895,3.11286346,4.112140435
Mcgrath Arpt,AK,USA,62.95,-155.6,0.098933422,5.815419598,9.24651716,0,35752.47393,11.52795088,4.952366276,6.575584602
Mekoryuk,AK,USA,60.367,-166.267,0.15171937,3.763354331,5.983733386,0,23641.26053,17.40557686,7.489409975,9.916166883
Middleton Island Aut,AK,USA,59.467,-146.317,0.079704555,7.170933093,11.40178362,0,43072.35594,9.471320392,4.110744036,5.360576356
Minchumina,AK,USA,63.883,-152.283,0.062505427,9.214677915,14.65133789,0,55105.88682,7.48356641,3.213078136,4.270488274
Nenana Municipal Ap,AK,USA,64.55,-149.1,0.081734801,7.04294147,11.19827694,0,42770.12378,9.627277429,4.139792261,5.487485168
Nome Municipal Arpt,AK,USA,64.517,-165.45,0.099542438,5.764842152,9.166099021,0,35311.66429,11.62906362,5.014188471,6.614875151
Northway Airport,AK,USA,62.967,-141.933,0.116685967,4.923895668,7.828994113,0,30601.14683,13.48464579,5.786033568,7.698612219
Palmer Municipal,AK,USA,61.6,-149.083,0.106510638,5.375478829,8.547011339,0,32972.19631,12.42629836,5.36995785,7.056340514
Petersburg,AK,USA,56.8,-132.95,0.122901231,4.653489033,7.399047563,0,28809.24707,14.23927115,6.145916496,8.093354651
Point Hope (awos),AK,USA,68.35,-166.8,0.101448504,5.679080462,9.029737934,0,35071.38416,11.78272587,5.048541447,6.734184424
Port Heiden,AK,USA,56.95,-158.617,0.153880784,3.716221332,5.908791918,0,23471.28204,17.59545894,7.543647882,10.05181106
Saint Mary`s (awos),AK,USA,62.067,-163.3,0.11668356,4.898858452,7.789184938,0,30168.36773,13.56940818,5.869036604,7.700371573
Sand Point,AK,USA,55.317,-160.517,0.114032909,4.997477152,7.945988672,0,30539.13671,13.33169741,5.797782147,7.533915259
Savoonga,AK,USA,63.683,-170.5,0.119143224,4.804584414,7.639289217,0,29712.86245,13.81439291,5.959010035,7.855382871
Selawik,AK,USA,66.6,-160,0.071016084,8.105071105,12.88706306,0,48785.77792,8.438580301,3.629325718,4.809254582
Seward,AK,USA,60.117,-149.45,0.096995918,5.877132516,9.3446407,0,35564.13106,11.43430708,4.978593271,6.45571381
Shishmaref (awos),AK,USA,66.267,-166.05,0.082713824,6.952453427,11.05440095,0,42185.4577,9.746847657,4.197167255,5.549680402
Sitka Japonski Ap,AK,USA,57.05,-135.367,0.097117273,5.868367111,9.330703706,0,35494.45678,11.45185047,4.988366033,6.46348444
Skagway Airport,AK,USA,59.467,-135.3,0.10066552,5.668191379,9.012424293,0,34435.04313,11.82947976,5.1418355,6.687644258
Sleetmute,AK,USA,61.717,-157.15,0.079979239,7.161283933,11.38644145,0,43131.83049,9.482601589,4.105075739,5.377525851
Soldotna,AK,USA,60.467,-151.033,0.057835852,9.912334946,15.76061256,0,58812.11333,6.986073451,3.010596462,3.975476989
St Paul Island Arpt,AK,USA,57.167,-170.217,0.359263478,1.588110948,2.525096407,0,11237.25288,38.76776517,15.7563657,23.01139947
Talkeetna State Arpt,AK,USA,62.317,-150.1,0.094503255,6.061812663,9.638282135,0,36900.33084,11.09488727,4.798313661,6.296573606
Tanana Ralph M Calhoun Mem Ap,AK,USA,65.167,-152.1,0.12725428,4.52541657,7.195412346,0,28482.6492,14.58203679,6.21638874,8.365648047
Togiac Village Awos,AK,USA,59.05,-160.4,0.085037196,6.722676157,10.68905509,0,40543.52349,10.06520113,4.367143984,5.698057144
Unalakleet Field,AK,USA,63.883,-160.8,0.094802721,6.035236347,9.596025792,0,36662.82776,11.14530657,4.82939722,6.315909346
Valdez Pioneer Fiel,AK,USA,61.133,-146.267,0.122723726,4.656032103,7.403091044,0,28763.55635,14.23822112,6.15567921,8.082541906
Valdez Wso,AK,USA,61.133,-146.35,0.152589864,3.746968194,5.957679428,0,23640.38698,17.45998727,7.489686722,9.970300549
Whittier,AK,USA,60.767,-148.683,0.113883702,5.007647848,7.962160079,0,30652.66958,13.30045178,5.776308106,7.524143677
Wrangell,AK,USA,56.483,-132.367,0.090960431,6.273988841,9.975642257,0,37891.56003,10.74618567,4.672791883,6.073393789
Yakutat State Arpt,AK,USA,59.517,-139.633,0.152759916,3.737675148,5.942903485,0,23496.38943,17.51751715,7.535587048,9.9819301
Anniston Metropolitan Ap,AL,USA,33.583,-85.85,0.054135283,10.57113508,16.80810477,0,62486.93828,6.574848564,2.833545104,3.74130346
Auburn-opelika Apt,AL,USA,32.616,-85.433,0.037089815,15.4849635,24.62109197,0,90565.91421,4.616246768,1.955036257,2.661210512
Birmingham Municipal Ap,AL,USA,33.567,-86.75,0.042805518,13.38673066,21.28490175,0,78557.88579,5.277360727,2.253874506,3.023486221
Cairns Field Fort Rucker,AL,USA,31.267,-85.717,0.04565711,12.54009475,19.93875065,0,73696.53643,5.606767551,2.402549831,3.20421772
Dothan Municipal Ap,AL,USA,31.233,-85.433,0.039950172,14.36288482,22.83698686,0,84183.56376,4.945733118,2.10325654,2.842476577
Gadsen Muni (awos),AL,USA,33.967,-86.083,0.044961368,12.7476744,20.26880229,0,74919.65454,5.5233809,2.363326502,3.160054398
Huntsville Intl Jones Field,AL,USA,34.65,-86.783,0.042268078,13.56219254,21.56388614,0,79553.98725,5.215072716,2.225653609,2.989419107
Maxwell Afb,AL,USA,32.383,-86.35,0.044712001,12.80658123,20.36246416,0,75219.29542,5.498244274,2.353912052,3.144332222
Mobile Downtown Ap,AL,USA,30.633,-88.067,0.038234242,15.00559657,23.85889855,0,87799.1796,4.750431387,2.016643442,2.733787945
Mobile Regional Ap,AL,USA,30.683,-88.25,0.041307172,13.85773785,22.03380318,0,81153.35972,5.110451579,2.181790425,2.928661154
Montgomery Dannelly Field,AL,USA,32.3,-86.4,0.042911,13.34385064,21.21672252,0,78254.16808,5.292868451,2.262622164,3.030246286
Muscle Shoals Regional Ap,AL,USA,34.75,-87.6,0.054454053,10.47946295,16.66234608,0,61766.93749,6.628459156,2.866574934,3.761884222
Troy Af,AL,USA,31.867,-86.017,0.043386489,13.19607649,20.98176162,0,77396.64661,5.348079758,2.28769101,3.060388749
Tuscaloosa Municipal Ap,AL,USA,33.217,-87.617,0.049330134,11.59246854,18.43202498,0,68226.37027,6.032214939,2.595178099,3.43703684
Batesville (awos),AR,USA,35.733,-91.65,0.040597251,14.12211143,22.45415718,0,82719.26197,5.024056796,2.14048848,2.883568316
Bentonville (awos),AR,USA,36.35,-94.217,0.039620121,14.49099682,23.04068495,0,84866.2885,4.907901316,2.08633647,2.821564847
El Dorado Goodwin Field,AR,USA,33.217,-92.817,0.041590728,13.7749806,21.90221915,0,80706.51282,5.140440813,2.193870307,2.946570507
Fayetteville Drake Field,AR,USA,36,-94.167,0.04271243,13.40872959,21.31988004,0,78582.4893,5.27085062,2.253168838,3.017681782
Flippin (awos),AR,USA,36.3,-92.467,0.042175119,13.58614379,21.60196863,0,79632.55585,5.207046137,2.223457695,2.983588442
Fort Smith Regional Ap,AR,USA,35.333,-94.367,0.038035503,15.10287222,24.01356683,0,88377.19193,4.724581069,2.003454027,2.721127042
Harrison Faa Ap,AR,USA,36.267,-93.15,0.045858352,12.47121179,19.82922675,0,73192.61237,5.636202561,2.419091132,3.21711143
Jonesboro Muni,AR,USA,35.833,-90.65,0.043828005,13.07653591,20.7916921,0,76737.8498,5.395624849,2.307330882,3.088293967
Little Rock Adams Field,AR,USA,34.75,-92.233,0.041329257,13.8678871,22.04994048,0,81260.02697,5.10889499,2.178926467,2.929968522
Little Rock Afb,AR,USA,34.917,-92.15,0.049321083,11.58211523,18.41556322,0,68085.44915,6.037147106,2.600549509,3.436597597
Memorial Fld,AR,USA,34.467,-93.1,0.04667187,12.24979328,19.47717131,0,71906.71865,5.731042152,2.462351203,3.268690949
Pine Bluff Faa Ap,AR,USA,34.167,-91.933,0.042966541,13.33366674,21.20053012,0,78177.01183,5.29860641,2.26485524,3.03375117
Rogers (awos),AR,USA,36.367,-94.1,0.035912768,16.01939293,25.47083476,0,93662.00203,4.476946102,1.890410716,2.586535385
Siloam Spring(awos),AR,USA,36.183,-94.483,0.037844496,15.17826033,24.13343393,0,88796.24924,4.703031842,1.993999111,2.709032732
Springdale Muni,AR,USA,36.183,-94.117,0.042658955,13.41978053,21.33745105,0,78628.5081,5.266176529,2.25185013,3.014326399
Stuttgart (awos),AR,USA,34.6,-91.567,0.038704701,14.84101891,23.59722007,0,86897.68268,4.801086813,2.037564549,2.763522264
Texarkana Webb Field,AR,USA,33.45,-94,0.040635325,14.11076166,22.43611105,0,82663.20337,5.027909221,2.141940065,2.885969156
Walnut Ridge (awos),AR,USA,36.133,-90.917,0.042571683,13.47295424,21.42199724,0,79045.57585,5.24859524,2.239968721,3.00862652
Casa Granda (awos),AZ,USA,32.95,-111.767,0.024687871,23.55109741,37.44624488,0,137017.5894,3.167054107,1.292240748,1.87481336
Davis Monthan Afb,AZ,USA,32.167,-110.883,0.026400906,21.94774128,34.89690864,0,127739.1029,3.369592878,1.386104167,1.983488711
Deer Valley Phoenix,AZ,USA,33.683,-112.083,0.025397438,22.87498294,36.37122287,0,133131.2013,3.249765903,1.329964026,1.919801877
Douglas Bisbee-douglas Intl A,AZ,USA,31.467,-109.6,0.025146176,23.06688058,36.67634013,0,134163.7157,3.223671701,1.319728724,1.903942976
Flagstaff Pulliam Arpt,AZ,USA,35.133,-111.667,0.027378389,21.18088259,33.67760332,0,123432.4963,3.479846756,1.434465828,2.045380928
Grand Canyon Natl P,AZ,USA,35.95,-112.15,0.02692722,21.50918301,34.19960099,0,125223.9472,3.430799667,1.413944409,2.016855257
Kingman (amos),AZ,USA,35.267,-113.95,0.02343225,24.92158844,39.62532562,0,145042.6824,3.015836534,1.220742173,1.795094361
Luke Afb,AZ,USA,33.55,-112.367,0.025622018,22.67736275,36.05700678,0,132017.3515,3.275209426,1.341185119,1.934024307
Page Muni (amos),AZ,USA,36.933,-111.45,0.026653537,21.7784839,34.62778939,0,126870.1592,3.395013379,1.395597695,1.999415684
Phoenix Sky Harbor Intl Ap,AZ,USA,33.45,-111.983,0.025410413,22.88143602,36.38148327,0,133224.8483,3.249616306,1.329029162,1.920587144
Prescott Love Field,AZ,USA,34.65,-112.417,0.026499445,21.88875203,34.80311572,0,127455.8222,3.378871639,1.389184891,1.989686748
Safford (amos),AZ,USA,32.817,-109.683,0.024664717,23.55139468,37.44671755,0,136985.5598,3.165923513,1.292542896,1.873380617
Scottsdale Muni,AZ,USA,33.617,-111.917,0.025218982,23.03794489,36.63033238,0,134064.0304,3.22920266,1.320710028,1.908492632
Show Low Municipal,AZ,USA,34.267,-110,0.025489809,22.79442874,36.24314169,0,132706.9266,3.259859297,1.334216024,1.925643273
Tucson International Ap,AZ,USA,32.133,-110.95,0.02524266,23.00730519,36.58161524,0,133874.7723,3.232584955,1.322577108,1.910007848
Winslow Municipal Ap,AZ,USA,35.033,-110.717,0.025069761,23.16182639,36.82730396,0,134748.4999,3.213061134,1.314001344,1.89905979
Yuma Intl Arpt,AZ,USA,32.667,-114.6,0.027439264,21.11685971,33.57580694,0,123016.7501,3.488591378,1.43931373,2.049277648
Yuma Mcas,AZ,USA,32.65,-114.617,0.028201829,20.50058037,32.59592279,0,119408.1914,3.580504624,1.482810275,2.097694348
Alturas,CA,USA,41.5,-120.533,0.030317642,19.09384595,30.35921506,0,111437.7316,3.82056145,1.588866535,2.231694915
Arcata Airport,CA,USA,40.983,-124.1,0.052640422,10.84231431,17.23927975,0,63783.89699,6.422956695,2.775928913,3.647027782
Bakersfield Meadows Field,CA,USA,35.433,-119.05,0.029793987,19.4540499,30.93193934,0,113552.8444,3.75772461,1.559271249,2.198453361
Beale Afb,CA,USA,39.133,-121.433,0.034950011,16.4930906,26.22401405,0,96432.52813,4.361520855,1.836098889,2.525421965
Bishop Airport,CA,USA,37.367,-118.35,0.024325361,23.99477686,38.1516952,0,139744.9913,3.118712544,1.267020114,1.851692431
Blue Canyon Ap,CA,USA,39.3,-120.717,0.028781037,20.19167237,32.10475906,0,117886.0887,3.636105621,1.50195577,2.134149851
Blythe Riverside Co Arpt,CA,USA,33.617,-114.717,0.024428469,23.83861633,37.90339996,0,138763.3306,3.134293274,1.275983453,1.858309821
Burbank-glendale-passadena Ap,CA,USA,34.2,-118.35,0.030261532,19.1128788,30.38947729,0,111505.3775,3.816086444,1.587902634,2.22818381
Camarillo (awos),CA,USA,34.217,-119.083,0.033229554,17.34467884,27.57803936,0,101281.9704,4.164607374,1.748185445,2.416421928
Camp Pendleton Mcas,CA,USA,33.3,-117.35,0.034669557,16.60675521,26.40474078,0,97045.32579,4.332221424,1.824504761,2.507716663
Carlsbad Palomar,CA,USA,33.133,-117.283,0.033737652,17.06957222,27.14061983,0,99688.1198,4.224794404,1.776136055,2.448658349
China Lake Naf,CA,USA,35.683,-117.683,0.023342866,25.0285738,39.79543234,0,145680.7553,3.004808901,1.2153954,1.789413501
Chino Airport,CA,USA,33.967,-117.633,0.032435213,17.79423698,28.29283679,0,103914.3582,4.069911203,1.703899962,2.366011241
Chula Vista Brown Field Naas,CA,USA,32.583,-116.983,0.030475437,18.963894,30.15259146,0,110609.5747,3.842542907,1.600762699,2.241780209
Concord Concord-buchanan Fiel,CA,USA,38,-122.05,0.033922644,17.00649039,27.04031973,0,99391.71336,4.241715822,1.781432851,2.460282971
Crescent City Faa Ai,CA,USA,41.783,-124.233,0.048295707,11.84622539,18.83549838,0,69641.53855,5.913945434,2.54244221,3.371503224
Daggett Barstow-daggett Ap,CA,USA,34.85,-116.8,0.023952671,24.35713564,38.72784567,0,141784.9414,3.076889951,1.248790702,1.828099249
Edwards Afb,CA,USA,34.9,-117.867,0.026360944,22.03041489,35.02835968,0,128303.9901,3.360865065,1.380001536,1.980863529
Fresno Yosemite Intl Ap,CA,USA,36.783,-119.717,0.03020236,19.17505419,30.48833617,0,111922.8223,3.806348409,1.58198015,2.224368259
Fullerton Municipal,CA,USA,33.867,-117.983,0.034176904,16.86347581,26.81292653,0,98541.80648,4.273243638,1.796797401,2.476446238
Hayward Air Term,CA,USA,37.667,-122.117,0.035265139,16.33867223,25.97848884,0,95546.11289,4.398541399,1.853133013,2.545408386
Imperial,CA,USA,32.833,-115.583,0.024284477,23.98676466,38.1389558,0,139612.1853,3.117403304,1.268225365,1.84917794
Jack Northrop Fld H,CA,USA,33.917,-118.333,0.034855954,16.52205505,26.27006753,0,96570.43253,4.352990119,1.833476908,2.51951321
Lancaster Gen Wm Fox Field,CA,USA,34.733,-118.217,0.024479298,23.83118231,37.89157987,0,138800.8863,3.137100635,1.275638208,1.861462427
Lemoore Reeves Nas,CA,USA,36.333,-119.95,0.029513881,19.65644016,31.25373985,0,114779.5175,3.72326008,1.542607,2.18065308
Livermore Municipal,CA,USA,37.7,-121.817,0.03203816,18.04579902,28.69282044,0,105428.2538,4.020192615,1.679432857,2.340759758
Lompoc (awos),CA,USA,34.667,-120.467,0.036960304,15.53859167,24.70636075,0,90842.44481,4.602105673,1.949085,2.653020673
Long Beach Daugherty Fld,CA,USA,33.833,-118.167,0.033934349,16.98202219,27.00141529,0,99189.74613,4.246154333,1.785060148,2.461094185
Los Angeles Intl Arpt,CA,USA,33.933,-118.4,0.035980775,15.96531102,25.38484452,0,93251.89238,4.489679745,1.898724487,2.590955258
March Afb,CA,USA,33.9,-117.25,0.027682711,20.95698845,33.32161163,0,122160.5928,3.514048307,1.449401091,2.064647217
Merced Macready Fld,CA,USA,37.283,-120.517,0.030161619,19.20054881,30.52887261,0,112080.9064,3.801532551,1.579748855,2.221783697
Modesto City-county Ap,CA,USA,37.633,-120.95,0.030892486,18.74255733,29.80066615,0,109467.1756,3.885564757,1.617468238,2.26809652
Montague Siskiyou County Ap,CA,USA,41.783,-122.467,0.030402715,19.04927402,30.2883457,0,111204.8133,3.829255702,1.592194411,2.237061291
Monterey Naf,CA,USA,36.6,-121.867,0.035909041,16.0059885,25.44952172,0,93522.9938,4.479588763,1.893220532,2.58636823
Mountain View Moffett Fld Nas,CA,USA,37.4,-122.05,0.032997249,17.48700289,27.8043346,0,102158.5758,4.134816753,1.733184577,2.401632176
Napa Co. Airport,CA,USA,38.217,-122.283,0.034180442,16.87840592,26.83666541,0,98665.06357,4.271167348,1.794552758,2.47661459
Needles Airport,CA,USA,34.767,-114.617,0.023980248,24.31778716,38.66528158,0,141547.781,3.080745143,1.250883024,1.829862119
Oakland Metropolitan Arpt,CA,USA,37.717,-122.217,0.038495425,14.93260356,23.74283966,0,87421.04288,4.7755953,2.025366354,2.750228946
Oxnard Airport,CA,USA,34.2,-119.2,0.031895617,18.1073406,28.79067155,0,105741.096,4.006246263,1.674464145,2.331782118
Palm Springs Intl,CA,USA,33.833,-116.5,0.025598887,22.70344639,36.09847977,0,132190.9209,3.271969655,1.339424117,1.932545538
Palm Springs Thermal Ap,CA,USA,33.633,-116.167,0.024292659,23.99517553,38.15232909,0,139684.2437,3.117242833,1.26757113,1.849671704
Palmdale Airport,CA,USA,34.633,-118.083,0.023840555,24.48903486,38.93756542,0,142588.9602,3.062715073,1.241749129,1.820965944
Paso Robles Municipal Arpt,CA,USA,35.667,-120.633,0.026615504,21.85453,34.7487027,0,127391.9225,3.386801015,1.389881705,1.99691931
Point Mugu Nf,CA,USA,34.117,-119.117,0.034943867,16.47627554,26.1972781,0,96305.42922,4.363617757,1.838522075,2.525095683
Porterville (awos),CA,USA,36.033,-119.067,0.030375073,19.06600749,30.31495191,0,111303.414,3.826093978,1.59078393,2.235310048
Red Bluff Municipal Arpt,CA,USA,40.15,-122.25,0.031158571,18.56855936,29.52400938,0,108430.1105,3.917935775,1.63293828,2.284997496
Redding Municipal Arpt,CA,USA,40.517,-122.317,0.031467114,18.37970396,29.2237293,0,107320.97,3.954385258,1.64981435,2.304570907
Riverside Muni,CA,USA,33.95,-117.45,0.031530668,18.32781953,29.14123305,0,107006.994,3.963289145,1.654655171,2.308633974
Sacramento Executive Arpt,CA,USA,38.5,-121.5,0.031296884,18.48410961,29.38973428,0,107951.3734,3.933944326,1.640179943,2.293764384
Sacramento Metropolitan Ap,CA,USA,38.7,-121.583,0.031493173,18.37831264,29.22151711,0,107381.7329,3.955050532,1.648880789,2.306169743
Salinas Municipal Ap,CA,USA,36.667,-121.6,0.033952702,16.97973402,26.99777709,0,99183.71013,4.247406704,1.785168781,2.462237923
San Diego Lindbergh Field,CA,USA,32.733,-117.167,0.031350389,18.39757821,29.25214936,0,107281.0445,3.947755353,1.650428342,2.297327011
San Diego Miramar Nas,CA,USA,32.867,-117.133,0.030527156,18.9192191,30.08155838,0,110341.5469,3.849736584,1.604651067,2.245085517
San Diego Montgomer,CA,USA,32.817,-117.133,0.031601459,18.26466528,29.0408178,0,106569.9307,3.974633091,1.661441216,2.313191875
San Diego North Island Nas,CA,USA,32.7,-117.2,0.03223133,17.87730988,28.4249227,0,104298.4206,4.050815129,1.697625627,2.353189502
San Francisco Intl Ap,CA,USA,37.617,-122.4,0.036419662,15.80707019,25.1332416,0,92485.13284,4.533073386,1.914466083,2.618607303
San Jose Intl Ap,CA,USA,37.367,-121.933,0.032700834,17.67045863,28.09602923,0,103256.9767,4.097524843,1.714747764,2.382777079
San Luis Co Rgnl,CA,USA,35.233,-120.633,0.030852999,18.7361034,29.7904044,0,109325.2191,3.885258028,1.619568485,2.265689544
Sandberg,CA,USA,34.75,-118.717,0.024491819,23.84255615,37.90966428,0,138920.9349,3.13675151,1.274535865,1.862215645
Santa Ana John Wayne Ap,CA,USA,33.683,-117.867,0.035475697,16.22351351,25.79538648,0,94850.00548,4.425546938,1.866733205,2.558813733
Santa Barbara Municipal Ap,CA,USA,34.433,-119.85,0.031427564,18.37303887,29.2131318,0,107214.7231,3.953598527,1.651449271,2.302149256
Santa Maria Public Arpt,CA,USA,34.917,-120.467,0.030252637,19.11175657,30.38769294,0,111455.5371,3.816259773,1.588612707,2.227647066
Santa Monica Muni,CA,USA,34.017,-118.45,0.035124238,16.38850234,26.05771873,0,95781.142,4.385128378,1.848585774,2.536542604
Santa Rosa (awos),CA,USA,38.517,-122.817,0.03589899,16.04344296,25.5090743,0,93823.61458,4.472758227,1.88715446,2.585603768
South Lake Tahoe,CA,USA,38.9,-120,0.027316898,21.29908415,33.8655438,0,124234.7816,3.466546668,1.425202319,2.041344348
Stockton Metropolitan Arpt,CA,USA,37.9,-121.233,0.031168231,18.57168133,29.52897331,0,108485.518,3.917683266,1.632104279,2.285578987
Travis Field Afb,CA,USA,38.267,-121.933,0.033475108,17.25701275,27.43865028,0,100904.494,4.186566145,1.754725275,2.43184087
Truckee-tahoe,CA,USA,39.317,-120.133,0.032078587,18.01539551,28.64447886,0,105198.1761,4.026463872,1.683105921,2.34335795
Twentynine Palms,CA,USA,34.3,-116.167,0.022895233,25.53654376,40.60310459,0,148605.4599,2.952504732,1.191475215,1.761029517
Ukiah Municipal Ap,CA,USA,39.133,-123.2,0.031723746,18.22784399,28.98227194,0,106457.0012,3.984039901,1.663203671,2.32083623
Van Nuys Airport,CA,USA,34.217,-118.483,0.030026332,19.27243174,30.64316647,0,112438.6135,3.787979069,1.574723118,2.213255952
Visalia Muni (awos),CA,USA,36.317,-119.4,0.028572544,20.31373365,32.2988365,0,118507.7494,3.615081461,1.49407691,2.121004551
Yuba Co,CA,USA,39.1,-121.567,0.031531154,18.35593091,29.18593015,0,107253.2016,3.959433652,1.650856792,2.30857686
Akron Washington Co Ap,CO,USA,40.167,-103.233,0.033344794,17.28635086,27.48529787,0,100955.5114,4.177556088,1.753838532,2.423717556
Alamosa San Luis Valley Rgnl,CO,USA,37.433,-105.867,0.026820763,21.66573164,34.44851331,0,126287.189,3.412002063,1.402040085,2.009961979
Aspen Pitkin Co Sar,CO,USA,39.217,-106.867,0.03162348,18.24417344,29.00823578,0,106446.6388,3.977970948,1.663365579,2.314605369
Aurora Buckley Field Angb,CO,USA,39.717,-104.75,0.035791852,16.05881741,25.53351968,0,93857.66776,4.465395908,1.886469768,2.578926139
Broomfield Jeffco [boulder - Surfrad],CO,USA,40.13,-105.24,0.034590467,16.63830625,26.45490693,0,97186.2085,4.324597948,1.821859932,2.502738016
Colorado Springs Muni Ap,CO,USA,38.817,-104.717,0.03295473,17.49676758,27.81986045,0,102171.4835,4.131948957,1.732965619,2.398983338
Cortez Montezuma Co,CO,USA,37.3,-108.633,0.027954319,20.71296878,32.93362036,0,120665.7771,3.549305131,1.467356354,2.081948778
Craig-moffat,CO,USA,40.5,-107.533,0.033728809,17.11032647,27.20541909,0,99994.46858,4.218677914,1.770694588,2.447983326
Denver Centennial [golden - Nrel],CO,USA,39.742,-105.179,0.037161586,15.44418611,24.55625591,0,90277.58639,4.627097064,1.961280229,2.665816835
Denver Intl Ap,CO,USA,39.833,-104.65,0.035278822,16.32199067,25.95196516,0,95437.98459,4.401540063,1.855232554,2.546307509
Durango La Plata Co,CO,USA,37.15,-107.75,0.028271719,20.48605876,32.57283342,0,119403.1672,3.58491421,1.482872668,2.102041543
Eagle County Ap,CO,USA,39.65,-106.917,0.034058188,16.91954421,26.90207529,0,98856.18256,4.260016402,1.791083347,2.468933055
Fort Collins (awos),CO,USA,40.45,-105.017,0.033372262,17.28353478,27.4808203,0,100974.9816,4.178918119,1.753500356,2.425417763
Grand Junction Walker Field,CO,USA,39.133,-108.533,0.030745003,18.80549689,29.90074006,0,109750.3092,3.872125597,1.613295501,2.258830096
Greeley Weld (awos),CO,USA,40.433,-104.633,0.033682689,17.12643111,27.23102546,0,100079.2139,4.214276297,1.769195196,2.445081101
Gunnison Co. (awos),CO,USA,38.533,-106.933,0.028851098,20.09539402,31.95167649,0,117210.8111,3.649314162,1.510608866,2.138705297
Hayden Yampa (awos),CO,USA,40.483,-107.217,0.033700494,17.12368592,27.22666061,0,100074.4395,4.215469739,1.769279601,2.446190138
La Junta Municipal Ap,CO,USA,38.05,-103.533,0.032226686,17.90015892,28.46125268,0,104479.5876,4.047515007,1.694681956,2.35283305
Lamar Municipal,CO,USA,38.067,-102.683,0.03115484,18.53639479,29.47286771,0,108150.1257,3.922028499,1.637165714,2.284862785
Leadville Lake Co.,CO,USA,39.217,-106.317,0.035093466,16.42843828,26.12121687,0,96110.8579,4.376727397,1.842244061,2.534483335
Limon,CO,USA,39.183,-103.717,0.033509112,17.20744472,27.3598371,0,100538.8381,4.195209155,1.761107137,2.434102017
Montrose Co. Arpt,CO,USA,38.5,-107.9,0.034781028,16.55909316,26.32895813,0,96762.83723,4.344601611,1.829831199,2.514770413
Pueblo Memorial Ap,CO,USA,38.283,-104.5,0.029621087,19.53646018,31.06297169,0,113951.0602,3.741399291,1.553822191,2.187577101
Rifle Garfield Rgnl,CO,USA,39.533,-107.717,0.033589266,17.14746891,27.26447556,0,100111.4301,4.207884823,1.768625864,2.439258959
Trinidad Las Animas County Ap,CO,USA,37.267,-104.333,0.029285928,19.7193912,31.35383201,0,114892.1688,3.707538648,1.541094481,2.166444167
Bridgeport Sikorsky Memorial,CT,USA,41.183,-73.15,0.051139486,11.20297536,17.81273082,0,66104.8757,6.229922593,2.678464662,3.551457931
Danbury Municipal,CT,USA,41.367,-73.483,0.052550833,10.90092539,17.33247137,0,64389.71396,6.39066779,2.749811353,3.640856437
Groton New London Ap,CT,USA,41.333,-72.05,0.065906557,8.66747939,13.78129223,0,51540.69306,7.922416462,3.435334051,4.487082411
Hartford Bradley Intl Ap,CT,USA,41.933,-72.683,0.058565071,9.76497632,15.52631235,0,57844.26591,7.082947953,3.060969528,4.021978425
Hartford Brainard Fd,CT,USA,41.733,-72.65,0.056677066,10.09118834,16.04498946,0,59702.98673,6.868063588,2.965673152,3.902390436
New Haven Tweed Airport,CT,USA,41.267,-72.883,0.055396708,10.33379525,16.43073445,0,61118.78224,6.718172189,2.896974469,3.82119772
Oxford (awos),CT,USA,41.483,-73.133,0.053953748,10.61761869,16.88201372,0,62766.65031,6.550642936,2.820917771,3.729725164
Dover Afb,DE,USA,39.133,-75.467,0.054072164,10.59126546,16.84011209,0,62623.35587,6.564609296,2.827372571,3.737236725
Wilmington New Castle Cnty Ap,DE,USA,39.667,-75.6,0.048191456,11.89153954,18.90754787,0,70028.33601,5.893097113,2.528399197,3.364697915
Crestview Bob Sikes Ap,FL,USA,30.783,-86.517,0.047079113,12.13963426,19.30201847,0,71306.33713,5.777573732,2.483083555,3.294490177
Daytona Beach Intl Ap,FL,USA,29.183,-81.067,0.037231699,15.39203866,24.47334147,0,89922.9897,4.639368596,1.96901421,2.670354386
Fort Lauderdale,FL,USA,26.2,-80.167,0.045512313,12.56371935,19.97631376,0,73751.44694,5.595934189,2.400761052,3.195173137
Fort Lauderdale Hollywood Int,FL,USA,26.067,-80.15,0.037390478,15.33934,24.38955061,0,89691.15111,4.654448131,1.97410382,2.680344312
Fort Myers Page Field,FL,USA,26.583,-81.867,0.038862123,14.73320706,23.42579922,0,86163.20763,4.828643485,2.054933199,2.773710286
Gainesville Regional Ap,FL,USA,29.7,-82.283,0.04223322,13.5721633,21.57973965,0,79633.81137,5.210622952,2.223422639,2.987200313
Homestead Afb,FL,USA,25.483,-80.383,0.03730332,15.37451456,24.44547815,0,89903.88797,4.644249923,1.969432563,2.67481736
Jacksonville Craig,FL,USA,30.333,-81.517,0.049004773,11.65862085,18.53720715,0,68554.87359,5.999262316,2.582742464,3.416519852
Jacksonville Intl Arpt,FL,USA,30.5,-81.7,0.041268572,13.88321995,22.07431973,0,81359.52515,5.102395586,2.176261765,2.926133821
Jacksonville Nas,FL,USA,30.233,-81.667,0.042853133,13.36075365,21.24359831,0,78355.89478,5.286265227,2.259684685,3.026580541
Key West Intl Arpt,FL,USA,24.55,-81.75,0.033026022,17.40574848,27.67514009,0,101564.4917,4.146977031,1.743322535,2.403654496
Key West Nas,FL,USA,24.583,-81.683,0.033952906,16.93583894,26.92798392,0,98855.19142,4.253488301,1.791101304,2.462386997
Lakeland Linder Rgn,FL,USA,27.983,-82.017,0.044161922,12.97073132,20.6234628,0,76178.25742,5.43372689,2.324280116,3.109446774
Macdill Afb,FL,USA,27.85,-82.517,0.038845265,14.76251527,23.47239927,0,86405.5315,4.821699663,2.049170156,2.772529506
Marathon Airport,FL,USA,24.733,-81.05,0.036764995,15.59130781,24.79017943,0,91055.44054,4.585297181,1.94452573,2.640771452
Mayport Ns,FL,USA,30.4,-81.417,0.041027203,13.97319348,22.21737764,0,81898.32077,5.072740693,2.161944513,2.91079618
Melbourne Regional Ap,FL,USA,28.117,-80.65,0.039128107,14.65230969,23.29717241,0,85770.20196,4.854814798,2.06434905,2.790465748
Miami Intl Ap,FL,USA,25.817,-80.3,0.041813898,13.70385925,21.78913621,0,80371.63141,5.163668863,2.203011411,2.960657452
Miami Kendall-tamia,FL,USA,25.65,-80.433,0.039903583,14.34533274,22.80907905,0,83935.71717,4.949189564,2.109467059,2.839722504
Miami Opa Locka,FL,USA,25.9,-80.283,0.037450235,15.30910852,24.34148255,0,89498.28145,4.662515876,1.978358028,2.684157848
Naples Municipal,FL,USA,26.15,-81.767,0.033800339,17.00487725,27.03775483,0,99299.09453,4.235810715,1.783094437,2.452716278
Nasa Shuttle Fclty,FL,USA,28.617,-80.717,0.038164231,15.0212036,23.88371372,0,87838.30596,4.745159164,2.015745157,2.729414007
Ocala Muni (awos),FL,USA,29.167,-82.217,0.034165845,16.82672105,26.75448647,0,98243.99311,4.278127976,1.802244143,2.475883833
Orlando Executive Ap,FL,USA,28.55,-81.333,0.040853228,14.02215032,22.29521901,0,82138.25753,5.055462366,2.155629193,2.899833173
Orlando Intl Arpt,FL,USA,28.433,-81.333,0.043686848,13.10383748,20.83510159,0,76901.79222,5.38181569,2.302412025,3.079403664
Orlando Sanford Airport,FL,USA,28.783,-81.25,0.033763754,17.03166618,27.08034923,0,99438.87212,4.230971755,1.780588009,2.450383745
Panama City Bay Co,FL,USA,30.2,-85.683,0.038487904,14.89721812,23.68657681,0,87161.62444,4.78129437,2.031394428,2.749899942
Pensacola Forest Sherman Nas,FL,USA,30.35,-87.317,0.037745,15.2058757,24.17734236,0,88988.34454,4.69244182,1.989694755,2.702747064
Pensacola Regional Ap,FL,USA,30.483,-87.183,0.043672941,13.10175747,20.83179438,0,76839.82687,5.382850378,2.304268739,3.078581638
Sarasota Bradenton,FL,USA,27.383,-82.55,0.036434798,15.74444883,25.03367364,0,92000.81994,4.544324506,1.924544249,2.619780257
Southwest Florida I,FL,USA,26.533,-81.75,0.042233988,13.54659126,21.53908011,0,79377.8989,5.21800387,2.230590892,2.987412977
St Lucie Co Intl,FL,USA,27.483,-80.367,0.04610474,12.39324748,19.7052635,0,72735.37892,5.667079764,2.434298145,3.232781619
St Petersburg Albert Whitted,FL,USA,27.767,-82.633,0.035388419,16.22759118,25.80186998,0,94812.13776,4.42088267,1.867478773,2.553403897
St Petersburg Clear,FL,USA,27.9,-82.683,0.036534565,15.72362918,25.0005704,0,91970.54033,4.551176183,1.925177869,2.625998314
Tallahassee Regional Ap [isis],FL,USA,30.38,-84.37,0.040449738,14.14948068,22.49767428,0,82797.9021,5.012804637,2.138455481,2.874349156
Tampa International Ap,FL,USA,27.967,-82.533,0.034841161,16.48896393,26.21745265,0,96338.00097,4.356595567,1.837900474,2.518695093
Tyndall Afb,FL,USA,30.067,-85.583,0.042153678,13.58977451,21.60774147,0,79691.57914,5.204028264,2.221810901,2.982217364
Valparaiso Elgin Afb,FL,USA,30.483,-86.517,0.040550873,14.15502596,22.50649127,0,83033.59862,5.01288351,2.132385337,2.880498173
Valparaiso Hurlburt,FL,USA,30.417,-86.683,0.038384663,14.96042619,23.78707765,0,87608.53221,4.764274,2.021031911,2.743242089
Vero Beach Municipal Arpt,FL,USA,27.65,-80.417,0.046797013,12.22398461,19.43613553,0,71849.79021,5.740819393,2.464302184,3.276517208
West Palm Beach Intl Arpt,FL,USA,26.683,-80.1,0.038137993,15.0400124,23.91361971,0,88003.41848,4.73965875,2.011963209,2.727695541
Whiting Field Naas,FL,USA,30.717,-87.017,0.044599041,12.83617231,20.40951397,0,75367.94532,5.486470957,2.349269384,3.137201573
Albany Dougherty County Ap,GA,USA,31.533,-84.183,0.044204764,12.93839508,20.57204818,0,75876.33805,5.445852007,2.333528642,3.112323365
Alma Bacon County Ap,GA,USA,31.533,-82.5,0.039104454,14.68902309,23.35554672,0,86089.66256,4.845507493,2.056688695,2.788818798
Athens Ben Epps Ap,GA,USA,33.95,-83.333,0.04047788,14.16316281,22.51942886,0,82959.38863,5.010296111,2.134292826,2.876003285
Atlanta Hartsfield Intl Ap,GA,USA,33.633,-84.433,0.04077247,14.06361158,22.36114241,0,82416.69814,5.042990672,2.148346519,2.894644153
Augusta Bush Field,GA,USA,33.367,-81.967,0.039554572,14.49693171,23.05012142,0,84876.97592,4.903556746,2.086073766,2.81748298
Brunswick Golden Is,GA,USA,31.25,-81.467,0.040647371,14.11152984,22.43733244,0,82737.56852,5.026688769,2.140014876,2.886673893
Brunswick Malcolm Mckinnon Ap,GA,USA,31.15,-81.383,0.043664052,13.11452637,20.85209692,0,76967.81697,5.378377766,2.300436966,3.0779408
Columbus Metropolitan Arpt,GA,USA,32.517,-84.95,0.043498163,13.15691083,20.91948823,0,77167.60486,5.361969972,2.294481114,3.067488858
Dekalb Peachtree,GA,USA,33.867,-84.3,0.05341981,10.70009482,17.01315076,0,63130.05607,6.500830722,2.804679292,3.69615143
Fort Benning Lawson,GA,USA,32.35,-85,0.044052498,12.99643688,20.66433463,0,76292.92262,5.423349228,2.320786821,3.102562408
Fulton Co Arpt Brow,GA,USA,33.767,-84.517,0.055000677,10.38244275,16.50808398,0,61271.2566,6.68617204,2.88976532,3.79640672
Hunter Aaf,GA,USA,32,-81.15,0.04057393,14.13704801,22.47790634,0,82866.82866,5.018707297,2.136676769,2.882030527
Macon Middle Ga Regional Ap,GA,USA,32.683,-83.65,0.039627617,14.46829129,23.00458315,0,84710.07083,4.91230344,2.090183973,2.822119467
Marietta Dobbins Afb,GA,USA,33.917,-84.517,0.048743827,11.74986148,18.68227975,0,69216.73208,5.957772242,2.558046014,3.399726228
Moody Afb Valdosta,GA,USA,30.967,-83.2,0.045006513,12.72303382,20.22962378,0,74743.27549,5.531893238,2.368903468,3.16298977
Rome R B Russell Ap,GA,USA,34.35,-85.167,0.04465017,12.82151426,20.38620767,0,75249.58026,5.493430479,2.352964701,3.140465779
Savannah Intl Ap,GA,USA,32.117,-81.2,0.040922532,14.00735567,22.27169551,0,82085.27314,5.061195104,2.157020607,2.904174497
Valdosta Wb Airport,GA,USA,30.783,-83.283,0.04587114,12.47242665,19.83115838,0,73254.82837,5.6348959,2.417036578,3.217859322
Warner Robins Afb,GA,USA,32.633,-83.6,0.043118611,13.29273894,21.13545492,0,78016.32097,5.3128344,2.269520175,3.043314225
Andersen Afb,GU,USA,13.567,144.917,0.036255697,15.76369458,25.06427439,0,91883.258,4.535707011,1.927006645,2.608700367
Guam Wfo,GU,USA,13.483,144.8,0.04393894,12.98374143,20.64414887,0,75995.1506,5.4255909,2.329880355,3.095710545
Barbers Point Nas,HI,USA,21.317,-158.067,0.033959293,16.89323692,26.8602467,0,98513.1162,4.2602479,1.797320687,2.462927213
Hilo International Ap,HI,USA,19.717,-155.05,0.046573694,12.20529505,19.40641913,0,71332.7599,5.745205819,2.482163784,3.263042036
Honolulu Intl Arpt,HI,USA,21.317,-157.933,0.03298883,17.37560635,27.62721409,0,101171.9354,4.151584241,1.750086777,2.401497464
Kahului Airport,HI,USA,20.9,-156.433,0.027585938,20.89899551,33.22940286,0,121470.4641,3.516455016,1.457635788,2.058819228
Kaneohe Bay Mcas,HI,USA,21.45,-157.783,0.039527235,14.4721727,23.01075459,0,84598.90666,4.90887136,2.092930501,2.815940858
Kapalua,HI,USA,20.95,-156.633,0.029531436,19.48002783,30.97324426,0,113310.3005,3.744813597,1.56260891,2.182204686
Kona Intl At Keahol,HI,USA,19.733,-156.05,0.03683872,15.52964733,24.69213926,0,90607.37124,4.599718612,1.954141739,2.645576873
Lanai,HI,USA,20.783,-156.95,0.032692542,17.54738422,27.90034092,0,102197.0422,4.115202706,1.732532217,2.382670488
Lihue Airport,HI,USA,21.983,-159.333,0.035871529,15.93717856,25.34011391,0,92840.03361,4.491503733,1.907147637,2.584356096
Molokai (amos),HI,USA,21.15,-157.1,0.031334037,18.31896581,29.12715564,0,106613.9681,3.957302719,1.660754951,2.296547768
Algona,IA,USA,43.083,-94.267,0.052661921,10.86633147,17.27746703,0,64111.33158,6.409790031,2.761751486,3.648038545
Atlantic,IA,USA,41.4,-95.05,0.052473968,10.89197902,17.31824664,0,64184.03012,6.394903057,2.758623371,3.636279686
Boone Muni,IA,USA,42.05,-93.85,0.059462233,9.611725496,15.28264354,0,56920.55348,7.189549576,3.11064316,4.078906416
Burlington Municipal Ap,IA,USA,40.783,-91.117,0.044926257,12.77493044,20.31213939,0,75132.81158,5.51433856,2.356621588,3.157716971
Carroll,IA,USA,42.05,-94.783,0.047579992,12.02886725,19.12589893,0,70711.14448,5.830099758,2.503984235,3.326115523
Cedar Rapids Municipal Ap,IA,USA,41.883,-91.717,0.058165824,9.830280042,15.63014527,0,58174.66074,7.04033863,3.04358521,3.99675342
Chariton,IA,USA,41.033,-93.367,0.053404725,10.69905409,17.011496,0,63069.43317,6.502650602,2.80737517,3.695275432
Charles City,IA,USA,43.067,-92.617,0.060254477,9.478944889,15.07152237,0,56127.53114,7.283772179,3.154593162,4.129179017
Clarinda,IA,USA,40.717,-95.033,0.046822353,12.23616558,19.45550328,0,71960.80568,5.738505879,2.460500458,3.27800542
Clinton Muni (awos),IA,USA,41.833,-90.333,0.051045893,11.21750009,17.83582514,0,66149.95661,6.222235628,2.676639303,3.545596325
Council Bluffs,IA,USA,41.267,-95.767,0.050345756,11.36287004,18.06696337,0,66903.74003,6.147850702,2.646482494,3.501368208
Creston,IA,USA,41.017,-94.367,0.048356689,11.83839792,18.82305269,0,69664.39204,5.916884097,2.54160816,3.375275937
Decorah,IA,USA,43.283,-91.733,0.050177308,11.41500417,18.14985663,0,67289.75267,6.121845723,2.631300774,3.490544949
Denison,IA,USA,41.983,-95.383,0.047830605,11.97049463,19.03308647,0,70391.34833,5.857320433,2.515360113,3.34196032
Des Moines Intl Ap,IA,USA,41.533,-93.667,0.04254882,13.48697607,21.44429196,0,79149.30679,5.244170457,2.237033082,3.007137375
Dubuque Regional Ap,IA,USA,42.4,-90.7,0.052136655,10.98068268,17.45928546,0,64790.56426,6.347510235,2.732798674,3.614711561
Estherville Muni,IA,USA,43.4,-94.75,0.050738823,11.28634172,17.94528333,0,66497.31023,6.188838867,2.662657701,3.526181167
Fair Field,IA,USA,41.05,-91.983,0.05227032,10.95864006,17.4242377,0,64694.87019,6.359956781,2.736840915,3.623115866
Fort Dodge (awos),IA,USA,42.55,-94.183,0.048357618,11.8561071,18.8512103,0,69827.24385,5.91087796,2.535680604,3.375197356
Fort Madison,IA,USA,40.667,-91.333,0.047959744,11.94067767,18.98567749,0,70246.15843,5.870668801,2.520559036,3.350109766
Keokuk Muni,IA,USA,40.467,-91.433,0.041586949,13.8163103,21.96793338,0,81091.27888,5.129556792,2.183460731,2.946096061
Knoxville,IA,USA,41.3,-93.117,0.046628504,12.28899977,19.53950964,0,72263.97492,5.715892413,2.450177929,3.265714485
Le Mars,IA,USA,42.783,-96.2,0.044959575,12.72655553,20.2352233,0,74639.27396,5.532351318,2.372204267,3.160147051
Mason City Municipal Arpt,IA,USA,43.15,-93.333,0.049322546,11.62032748,18.4763207,0,68473.51298,6.022160853,2.585811289,3.436349564
Monticello Muni,IA,USA,42.233,-91.167,0.054803355,10.44224299,16.60316636,0,61722.61247,6.65228469,2.868633511,3.783651179
Muscatine,IA,USA,41.367,-91.15,0.048208485,11.88804002,18.90198363,0,70001.08109,5.895163065,2.529383628,3.365779437
Newton Muni,IA,USA,41.683,-93.017,0.059373666,9.619004709,15.29421749,0,56915.20341,7.184341643,3.110935562,4.073406081
Oelwen,IA,USA,42.683,-91.967,0.056057543,10.19724297,16.21361632,0,60259.79004,6.801508499,2.938270237,3.863238262
Ottumwa Industrial Ap,IA,USA,41.1,-92.45,0.056812599,10.06531468,16.00385034,0,59501.16563,6.886781605,2.975732357,3.911049248
Red Oak,IA,USA,41.017,-95.267,0.046504961,12.32043909,19.58949815,0,72427.0121,5.702568175,2.444662451,3.257905724
Sheldon,IA,USA,43.217,-95.833,0.052553888,10.87621942,17.29318888,0,64097.53742,6.403680544,2.762345829,3.641334715
Shenandoah Muni,IA,USA,40.75,-95.417,0.047710407,12.0067532,19.09073759,0,70648.07047,5.840495931,2.506219768,3.334276163
Sioux City Sioux Gateway Ap,IA,USA,42.383,-96.383,0.041928805,13.69675177,21.77783531,0,80368.33888,5.170906113,2.203101664,2.967804449
Spencer,IA,USA,43.167,-95.15,0.058854319,9.718904286,15.45305781,0,57573.90111,7.115638141,3.075343696,4.040294445
Storm Lake,IA,USA,42.6,-95.233,0.049002193,11.68830468,18.58440444,0,68822.71984,5.98881913,2.572690887,3.416128243
Washington,IA,USA,41.283,-91.667,0.05660399,10.09373332,16.04903597,0,59631.2073,6.867171659,2.969242994,3.897928665
Waterloo Municipal Ap,IA,USA,42.55,-92.4,0.047272719,12.13249552,19.29066788,0,71439.83537,5.784865363,2.478443471,3.306421892
Webster City,IA,USA,42.433,-93.867,0.049556568,11.5352173,18.3409955,0,67842.52895,6.061315353,2.609861147,3.451454206
Boise Air Terminal [uo],ID,USA,43.62,-116.21,0.035212551,16.36653752,26.02279466,0,95686.01134,4.392499764,1.850423629,2.542076135
Burley Municipal Arpt,ID,USA,42.533,-113.767,0.032268158,17.89382202,28.45117702,0,104466.646,4.050308451,1.694891898,2.355416553
Caldwell (awos),ID,USA,43.633,-116.633,0.03119512,18.57445118,29.53337738,0,108537.4862,3.918555832,1.631322822,2.287233011
Coeur D`alene(awos),ID,USA,47.767,-116.817,0.044492827,12.89571849,20.5041924,0,75764.38762,5.467291153,2.336976689,3.130314464
Hailey Friedman Mem,ID,USA,43.5,-114.3,0.035112968,16.43365689,26.12951445,0,96126.2612,4.377638044,1.84194886,2.535689184
Idaho Falls Fanning Field,ID,USA,43.517,-112.067,0.034873447,16.53242262,26.28655197,0,96642.90938,4.352671185,1.832101903,2.520569282
Joslin Fld Magic Va [twin Falls - Uo],ID,USA,42.55,-114.35,0.031302065,18.46462146,29.35874813,0,107773.6799,3.937032953,1.642884211,2.294148742
Lewiston Nez Perce Cnty Ap,ID,USA,46.367,-117.017,0.043553618,13.17192453,20.94336001,0,77297.97272,5.361459382,2.290611333,3.070848049
Malad City,ID,USA,42.15,-112.283,0.035544025,16.2128169,25.77837886,0,94800.63063,4.43079013,1.867705451,2.563084679
Mountain Home Afb,ID,USA,43.05,-115.867,0.033225421,17.38867572,27.6479944,0,101635.8573,4.158123388,1.742098428,2.416024961
Pocatello Regional Ap,ID,USA,42.917,-112.567,0.034734387,16.61918796,26.42450886,0,97215.06495,4.332993673,1.821319148,2.511674525
Salmon Lemhi (awos),ID,USA,45.117,-113.883,0.038608575,14.89689533,23.68606358,0,87249.72033,4.786699407,2.029343335,2.757356072
Soda Springs Tigert,ID,USA,42.65,-111.583,0.037868937,15.21709014,24.19517332,0,89177.45723,4.695831794,1.985475347,2.710356447
Aurora Municipal,IL,USA,41.767,-88.467,0.052751485,10.86894854,17.28162817,0,64245.31206,6.409467153,2.755991996,3.653475157
Belleville Scott Afb,IL,USA,38.55,-89.85,0.048137547,11.89425165,18.91186012,0,69983.11811,5.8914163,2.530032859,3.361383441
Cahokia St. Louis,IL,USA,38.567,-90.15,0.046320409,12.35689939,19.64747003,0,72587.61636,5.685559367,2.439253503,3.246305864
Central Illinois Rg,IL,USA,40.467,-88.917,0.052418383,10.91779174,17.35928886,0,64425.30596,6.380877971,2.748292211,3.63258576
Chicago Midway Ap,IL,USA,41.783,-87.75,0.052654534,10.88082109,17.30050553,0,64276.79592,6.402057736,2.754642066,3.64741567
Chicago Ohare Intl Ap,IL,USA,41.983,-87.917,0.053259761,10.7506859,17.09359057,0,63497.1963,6.474289265,2.788462686,3.685826578
Chicago Waukegan,IL,USA,42.417,-87.867,0.064303104,8.894847521,14.14280756,0,52907.45382,7.731927651,3.346589071,4.385338579
Decatur,IL,USA,39.833,-88.867,0.056921697,10.04355605,15.96925413,0,59397.794,6.898863193,2.980911098,3.917952096
Marion Regional,IL,USA,37.75,-89.017,0.055125688,10.34646943,16.45088639,0,60972.65926,6.70842251,2.903917152,3.804505358
Moline Quad City Intl Ap,IL,USA,41.467,-90.517,0.04633353,12.36624152,19.66232401,0,72711.5906,5.682120589,2.435094549,3.24702604
Mount Vernon (awos),IL,USA,38.317,-88.867,0.045719495,12.52092775,19.90827513,0,73510.81275,5.616856283,2.40861982,3.208236463
Peoria Greater Peoria Ap,IL,USA,40.667,-89.683,0.046590037,12.30349357,19.56255478,0,72383.73913,5.709353314,2.446123935,3.263229379
Quincy Muni Baldwin Fld,IL,USA,39.933,-91.2,0.05433833,10.51726328,16.72244862,0,62060.05236,6.60741306,2.85303588,3.75437718
Rockford Greater Rockford Ap,IL,USA,42.2,-89.1,0.051672097,11.08085065,17.61855253,0,65377.50687,6.293525394,2.708264341,3.585261052
Southern Illinois,IL,USA,37.767,-89.25,0.055075074,10.37722634,16.49978988,0,61282.98472,6.690232282,2.889212288,3.801019994
Springfield Capital Ap,IL,USA,39.85,-89.683,0.044756836,12.80492593,20.35983223,0,75228.45697,5.500738833,2.353625386,3.147113447
Sterling Rockfalls,IL,USA,41.75,-89.667,0.048973898,11.70897577,18.61727148,0,69014.01947,5.979764511,2.565559668,3.414204844
Univ Of Illinois Wi [bondville - Surfrad],IL,USA,40.06,-88.37,0.056444585,10.14693996,16.13363454,0,60094.36624,6.833849046,2.9463585,3.887490545
W. Chicago Du Page,IL,USA,41.917,-88.25,0.051390581,11.15315136,17.73351067,0,65848.74431,6.256193709,2.688883051,3.567310658
Delaware Co Johnson,IN,USA,40.233,-85.4,0.060344628,9.472246734,15.06087231,0,56137.92559,7.288780256,3.154009062,4.134771195
Evansville Regional Ap,IN,USA,38.05,-87.533,0.043107698,13.30439224,21.15398367,0,78090.97155,5.309936386,2.267350644,3.042585742
Fort Wayne Intl Ap,IN,USA,41,-85.2,0.054296666,10.54150244,16.76098888,0,62270.84938,6.59494231,2.843377902,3.751564408
Grissom Arb,IN,USA,40.65,-86.15,0.057764663,9.907004415,15.75213702,0,58684.10131,6.988365172,3.017163691,3.971201482
Huntingburg,IN,USA,38.25,-86.95,0.043500799,13.17805954,20.95311467,0,77343.98925,5.356780939,2.289248514,3.067532425
Indianapolis Intl Ap,IN,USA,39.717,-86.267,0.049703521,11.52345412,18.32229206,0,67892.77952,6.068476782,2.607929471,3.460547311
Lafayette Purdue Univ Ap,IN,USA,40.417,-86.933,0.059343969,9.632831372,15.31620188,0,57052.41845,7.174840996,3.103453558,4.071387438
Monroe Co,IN,USA,39.133,-86.617,0.064076238,8.90997368,14.16685815,0,52870.92704,7.720186323,3.348901115,4.371285208
South Bend Michiana Rgnl Ap,IN,USA,41.7,-86.333,0.056018944,10.22019575,16.25011125,0,60481.87545,6.788071125,2.927481123,3.860590002
Terre Haute Hulman Regional A,IN,USA,39.45,-87.3,0.061015484,9.353634148,14.8722783,0,55375.10446,7.374941452,3.197457114,4.177484338
Chanute Martin Johnson Ap,KS,USA,37.667,-95.483,0.042319847,13.55205114,21.54776131,0,79456.91453,5.221073336,2.228372693,2.992700643
Concordia Blosser Muni Ap,KS,USA,39.55,-97.65,0.038246201,15.02464233,23.88918131,0,87948.25359,4.747678144,2.013225196,2.734452947
Dodge City Regional Ap,KS,USA,37.767,-99.967,0.033587819,17.16424168,27.29114427,0,100275.1904,4.20484004,1.765737508,2.439102532
Emporia Municipal Ap,KS,USA,38.333,-96.183,0.04244326,13.51011108,21.48107662,0,79183.17115,5.236628007,2.236076369,3.000551638
Fort Riley Marshall Aaf,KS,USA,39.05,-96.767,0.044081282,13.00439397,20.67698641,0,76355.04496,5.423207434,2.318898635,3.104308799
Garden City Municipal Ap,KS,USA,37.933,-100.717,0.032764449,17.61685475,28.01079905,0,102913.7242,4.107331201,1.72046703,2.386864171
Goodland Renner Field,KS,USA,39.367,-101.7,0.031899808,18.09450371,28.77026089,0,105610.2533,4.008629105,1.676538672,2.332090433
Great Bend (awos),KS,USA,38.35,-98.867,0.032558908,17.75657832,28.23295953,0,103793.2589,4.079636299,1.705887961,2.373748338
Hays Muni (awos),KS,USA,38.85,-99.267,0.034832708,16.54905835,26.31300278,0,96760.55035,4.347859371,1.829874445,2.517984925
Hill City Municipal Ap,KS,USA,39.383,-99.833,0.037242767,15.43963437,24.54901864,0,90332.09966,4.630934112,1.960096644,2.670837468
Hutchinson Municipal Ap,KS,USA,38.067,-97.867,0.035687338,16.12542744,25.63942964,0,94280.19808,4.450248322,1.878015291,2.572233031
Liberal Muni,KS,USA,37.033,-100.967,0.03094625,18.67769467,29.69753453,0,108999.9422,3.896000655,1.624401586,2.271599069
Manhattan Rgnl,KS,USA,39.133,-96.667,0.041962469,13.67337945,21.74067332,0,80197.43367,5.177802221,2.207796591,2.970005631
Mcconnell Afb,KS,USA,37.617,-97.267,0.041604638,13.78031866,21.91070666,0,80769.10751,5.139566376,2.192170096,2.94739628
Newton (awos),KS,USA,38.05,-97.283,0.037049143,15.54306629,24.71347541,0,90998.25203,4.604215683,1.94574778,2.658467903
Olathe Johnson Co Industrial,KS,USA,38.833,-94.883,0.039322486,14.61267837,23.23415861,0,85580.337,4.871586484,2.068928924,2.80265756
Olathe Johnson Co.,KS,USA,38.85,-94.733,0.039745197,14.44947398,22.97466363,0,84660.91817,4.920855965,2.091397496,2.829458469
Russell Municipal Ap,KS,USA,38.883,-98.817,0.039257158,14.63579387,23.27091225,0,85728.33884,4.863870432,2.065357118,2.798513313
Salina Municipal Ap,KS,USA,38.817,-97.667,0.038653755,14.86875868,23.6413263,0,87088.57381,4.793350155,2.033098377,2.760251778
Topeka Forbes Field,KS,USA,38.95,-95.667,0.039316911,14.61535958,23.23842173,0,85636.023,4.869863497,2.067583576,2.802279921
Topeka Municipal Ap,KS,USA,39.067,-95.633,0.040409345,14.19119228,22.56399573,0,83109.16033,5.002099958,2.130446604,2.871653354
Wichita Col. Jabara,KS,USA,37.75,-97.217,0.034090161,16.91084514,26.88824378,0,98816.54274,4.262739477,1.791801831,2.470937646
Wichita Mid-continent Ap,KS,USA,37.65,-97.433,0.035982011,15.98632659,25.41825928,0,93459.04486,4.48545127,1.894515959,2.590935311
Bowling Green Warren Co Ap,KY,USA,36.983,-86.433,0.056772318,10.0585142,15.99303757,0,59412.33196,6.888828605,2.980181682,3.908646923
Cincinnati Northern Ky Ap,KY,USA,39.05,-84.667,0.049740898,11.50688727,18.29595076,0,67758.8733,6.076073253,2.613083298,3.462989955
Fort Campbell Aaf,KY,USA,36.667,-87.483,0.053422993,10.69884824,17.0111687,0,63109.72989,6.501952717,2.805582612,3.696370104
Fort Knox Godman Aaf,KY,USA,37.9,-85.967,0.05330153,10.73473595,17.06823016,0,63367.74396,6.482713964,2.794159156,3.688554808
Henderson City,KY,USA,37.817,-87.683,0.04371223,13.1365115,20.88705329,0,77215.40523,5.373827563,2.293060712,3.080766851
Jackson Julian Carroll Ap,KY,USA,37.583,-83.317,0.04892366,11.69362422,18.59286252,0,68807.76144,5.984508087,2.573250174,3.411257914
Lexington Bluegrass Ap,KY,USA,38.033,-84.6,0.050298716,11.36153429,18.06483952,0,66860.56828,6.146673894,2.64819132,3.498482574
London-corbin Ap,KY,USA,37.083,-84.083,0.051692419,11.05367495,17.57534317,0,65090.08681,6.307023027,2.720223279,3.586799747
Louisville Bowman Field,KY,USA,38.233,-85.667,0.058553146,9.743468679,15.4921152,0,57569.78205,7.097136315,3.075563734,4.021572581
Louisville Standiford Field,KY,USA,38.183,-85.733,0.046286865,12.3636886,19.65826487,0,72635.12161,5.681841591,2.43765817,3.244183421
Paducah Barkley Regional Ap,KY,USA,37.05,-88.767,0.044503639,12.85941927,20.44647663,0,75448.29682,5.477979381,2.346767445,3.131211936
Somerset(awos),KY,USA,38,-84.6,0.046456779,12.33931097,19.61950444,0,72590.70135,5.693932806,2.439149839,3.254782967
Alexandria Esler Regional Ap,LA,USA,31.4,-92.3,0.045207782,12.65215385,20.11692462,0,74233.34343,5.561055093,2.385176185,3.175878908
Barksdale Afb,LA,USA,32.5,-93.667,0.043036647,13.30428498,21.15381312,0,77995.85066,5.308347182,2.270115819,3.038231363
Baton Rouge Ryan Arpt,LA,USA,30.533,-91.15,0.043493108,13.15627067,20.91847036,0,77134.00387,5.362678133,2.295480631,3.067197502
England Afb,LA,USA,31.317,-92.55,0.037482144,15.31724465,24.35441899,0,89591.52811,4.662393568,1.976298959,2.686094609
Fort Polk Aaf,LA,USA,31.05,-93.183,0.045765329,12.49667659,19.86971578,0,73371.57946,5.624382035,2.413190521,3.211191513
Houma-terrebonne,LA,USA,29.567,-90.667,0.042444103,13.48285332,21.43773678,0,78999.62543,5.241995168,2.241271605,3.000723563
Lafayette Regional Ap,LA,USA,30.2,-91.983,0.039365918,14.54973802,23.13408345,0,85114.56795,4.885869176,2.080250627,2.805618548
Lake Charles Regional Arpt,LA,USA,30.117,-93.233,0.043506556,13.14503863,20.90061143,0,77041.73528,5.366326728,2.298229796,3.068096931
Lake Charles Wb Airp,LA,USA,30.217,-93.167,0.042201745,13.56344775,21.56588193,0,79478.95815,5.213097493,2.227754651,2.985342842
Monroe Regional Ap,LA,USA,32.517,-92.033,0.042169206,13.58518134,21.60043833,0,79647.50655,5.206251455,2.223040328,2.983211127
New Iberia Naas,LA,USA,30.033,-91.883,0.044871204,12.75963056,20.2878126,0,74928.15831,5.517500112,2.363058283,3.15444183
New Orleans Alvin Callender F,LA,USA,29.817,-90.017,0.046337307,12.3433443,19.62591744,0,72522.84688,5.688838646,2.441431975,3.247406672
New Orleans Intl Arpt,LA,USA,30,-90.25,0.043351708,13.19999872,20.98799796,0,77401.17626,5.345780121,2.28755713,3.05822299
New Orleans Lakefront Ap,LA,USA,30.05,-90.033,0.057636809,9.885424261,15.71782457,0,58328.96784,6.999207605,3.035533534,3.963674071
Patterson Memorial,LA,USA,29.717,-91.333,0.039574868,14.48138748,23.02540609,0,84770.82819,4.907490953,2.088685888,2.818805065
Shreveport Downtown,LA,USA,32.533,-93.75,0.039244752,14.62350354,23.25137062,0,85632.47352,4.865464322,2.067669277,2.797795045
Shreveport Regional Arpt,LA,USA,32.45,-93.817,0.03996917,14.34996347,22.81644191,0,84024.76728,4.950980773,2.107231432,2.843749341
Barnstable Muni Boa,MA,USA,41.667,-70.283,0.05701958,10.02331342,15.93706833,0,59252.03439,6.912451182,2.988244107,3.924207075
Beverly Muni,MA,USA,42.583,-70.917,0.059430058,9.621914139,15.29884348,0,57023.94466,7.18177926,3.105003205,4.076776056
Boston Logan Int'l Arpt,MA,USA,42.367,-71.017,0.052742168,10.85150803,17.25389776,0,64052.08396,6.417393155,2.764306078,3.653087077
Chicopee Falls Westo,MA,USA,42.2,-72.533,0.064195165,8.919338759,14.18174863,0,53123.31322,7.711304828,3.332990685,4.378314143
Lawrence Muni,MA,USA,42.717,-71.117,0.060769292,9.401101035,14.94775065,0,55709.19291,7.340017036,3.178281973,4.161735063
Marthas Vineyard,MA,USA,41.4,-70.617,0.066219186,8.61305126,13.6947515,0,51122.29539,7.97061797,3.46344963,4.50716834
Nantucket Memorial Ap,MA,USA,41.25,-70.067,0.055581062,10.30243533,16.38087217,0,60949.73012,6.737855229,2.905009596,3.832845632
New Bedford Rgnl,MA,USA,41.667,-70.95,0.050813293,11.26218339,17.90687159,0,66386.10434,6.19803231,2.667118013,3.530914297
North Adams,MA,USA,42.7,-73.167,0.059547451,9.591400926,15.25032747,0,56767.27091,7.20344098,3.119042481,4.084398499
Norwood Memorial,MA,USA,42.183,-71.183,0.063304381,9.03795478,14.3703481,0,53751.43912,7.616071646,3.29404226,4.322029386
Otis Angb,MA,USA,41.65,-70.517,0.057264092,9.997430047,15.89591377,0,59219.0035,6.929360067,2.989910873,3.939449194
Plymouth Municipal,MA,USA,41.917,-70.733,0.062449414,9.142192014,14.5360853,0,54206.89369,7.534596253,3.266365267,4.268230986
Provincetown (awos),MA,USA,42.067,-70.217,0.056343402,10.15782154,16.15093624,0,60113.51168,6.826597515,2.945420121,3.881177394
Westfield Barnes Muni Ap,MA,USA,42.15,-72.717,0.071146668,8.050713253,12.80063407,0,48207.11782,8.49126699,3.672890688,4.818376302
Worchester Regional Arpt,MA,USA,42.267,-71.883,0.055702074,10.27952683,16.34444765,0,60836.21962,6.750924735,2.910429863,3.840494872
Andrews Afb,MD,USA,38.817,-76.867,0.05085636,11.26137071,17.90557942,0,66436.83294,6.198626871,2.665081508,3.533545363
Baltimore Blt-washngtn Int'l,MD,USA,39.167,-76.683,0.046398008,12.34735499,19.63229444,0,72602.7545,5.689864164,2.438744904,3.25111926
Hagerstown Rgnl Ric,MD,USA,39.7,-77.733,0.058919281,9.705470479,15.43169806,0,57508.99242,7.123228348,3.07881474,4.044413608
Patuxent River Nas,MD,USA,38.3,-76.417,0.044575574,12.86964507,20.46273566,0,75642.90486,5.476275845,2.340729876,3.135545969
Salisbury Wicomico Co Ap,MD,USA,38.333,-75.517,0.04616606,12.41108416,19.73362382,0,72993.32758,5.662092276,2.425695673,3.236396603
Auburn-lewiston,ME,USA,44.05,-70.283,0.048508938,11.81170671,18.78061367,0,69552.33085,5.93054005,2.545703137,3.384836913
Augusta Airport,ME,USA,44.317,-69.8,0.064888277,8.797707786,13.98835538,0,52241.96254,7.811925105,3.389219965,4.42270514
Bangor International Ap,ME,USA,44.8,-68.817,0.059896047,9.550201941,15.18482109,0,56623.18666,7.233235964,3.126979232,4.106256732
Bar Harbor (awos),ME,USA,44.45,-68.367,0.05644526,10.13237165,16.11047093,0,59919.17818,6.84270354,2.95497287,3.88773067
Caribou Municipal Arpt,ME,USA,46.867,-68.033,0.062960067,9.080241889,14.4375846,0,53906.96052,7.584940315,3.284538977,4.300401338
Houlton Intl Arpt,ME,USA,46.117,-67.8,0.06543563,8.7367867,13.89149085,0,51963.83605,7.86451685,3.407360082,4.457156768
Millinocket Municipal Ap,ME,USA,45.65,-68.683,0.059991233,9.520197213,15.13711357,0,56368.31874,7.253618349,3.141117764,4.112500585
Naval Air Station,ME,USA,43.9,-69.933,0.06340063,9.010399201,14.32653473,0,53472.31602,7.639646594,3.311236981,4.328409612
Northern Aroostook,ME,USA,47.283,-68.317,0.061076778,9.359787725,14.88206248,0,55485.62828,7.372237086,3.191087995,4.18114909
Portland Intl Jetport,ME,USA,43.65,-70.3,0.049226453,11.6281615,18.48877679,0,68444.90561,6.017291415,2.586892058,3.430399358
Presque Isle Municip,ME,USA,46.683,-68.05,0.049951846,11.47895242,18.25153434,0,67703.55455,6.091374183,2.615218375,3.476155809
Rockland Knox(awos),ME,USA,44.067,-69.1,0.053825603,10.63518566,16.9099452,0,62807.90018,6.540779575,2.819065101,3.721714474
Sanford Muni (awos),ME,USA,43.4,-70.717,0.052144192,10.98249754,17.46217109,0,64822.8471,6.346586609,2.731437698,3.615148911
Waterville (awos),ME,USA,44.533,-69.683,0.046667819,12.29000449,19.54110713,0,72311.40127,5.716693037,2.448570951,3.268122086
Wiscasset,ME,USA,43.967,-69.717,0.062446108,9.142813435,14.53707336,0,54185.3507,7.535719165,3.267663905,4.26805526
Alpena County Regional Ap,MI,USA,45.067,-83.583,0.053320772,10.74024681,17.07699243,0,63422.64666,6.481435982,2.791740357,3.689695625
Ann Arbor Municipal,MI,USA,42.217,-83.75,0.057972735,9.867450829,15.68924682,0,58422.10091,7.015145111,3.030694473,3.984450638
Battle Creek Kellogg Ap,MI,USA,42.3,-85.25,0.059386059,9.636051778,15.32132233,0,57131.26764,7.173076403,3.099170363,4.07390604
Benton Harbor Ross,MI,USA,42.133,-86.433,0.056350207,10.15487806,16.14625611,0,60066.96704,6.829355486,2.947702462,3.881653023
Cadillac Wexford Co Ap,MI,USA,44.283,-85.417,0.056814838,10.07533249,16.01977866,0,59634.90691,6.880093777,2.969058789,3.911034988
Chippewa Co Intl,MI,USA,46.25,-84.467,0.060283199,9.492263509,15.09269898,0,56295.87248,7.275908011,3.145160011,4.130748001
Detroit City Airport,MI,USA,42.4,-83,0.062555323,9.144751722,14.54015524,0,54344.2372,7.532736759,3.258110238,4.274626521
Detroit Metropolitan Arpt,MI,USA,42.217,-83.35,0.055260773,10.36117514,16.47426847,0,61280.00244,6.701922898,2.889352895,3.812570003
Detroit Willow Run Ap,MI,USA,42.233,-83.533,0.055161649,10.38450078,16.51135625,0,61435.37196,6.688284147,2.882045759,3.806238389
Escanaba (awos),MI,USA,45.75,-87.033,0.05158611,11.11266038,17.66913001,0,65606.29893,6.278516877,2.698819693,3.579697184
Flint Bishop Intl Arpt,MI,USA,42.967,-83.75,0.058765307,9.724690626,15.4622581,0,57552.54001,7.111271067,3.076485134,4.034785933
Grand Rapids Kent County Int',MI,USA,42.883,-85.517,0.054814887,10.44733429,16.61126152,0,61774.88441,6.650518616,2.866206169,3.784312446
Hancock Houghton Co Ap,MI,USA,47.167,-88.5,0.055440836,10.32114781,16.41062502,0,61006.8764,6.726352239,2.902288424,3.824063815
Houghton Lake Roscommon Co Ar,MI,USA,44.367,-84.683,0.057087803,10.01066175,15.91695218,0,59164.06093,6.921238865,2.992687441,3.928551424
Howell,MI,USA,42.633,-83.983,0.052903529,10.83434666,17.22661119,0,64028.98183,6.428446841,2.765303458,3.663143383
Iron Mountain Ford,MI,USA,45.817,-88.117,0.058914547,9.71432317,15.44577384,0,57593.72418,7.118300266,3.074285202,4.044015064
Ironwood (awos),MI,USA,46.533,-90.133,0.051286575,11.1759193,17.76971168,0,65939.50737,6.245940333,2.685181918,3.560758415
Jackson Reynolds Field,MI,USA,42.267,-84.467,0.062620313,9.143838788,14.53870367,0,54377.49157,7.534739555,3.256117755,4.2786218
Kalamazoo Battle Cr,MI,USA,42.233,-85.55,0.060742551,9.410455326,14.96262397,0,55791.47571,7.33355909,3.173594564,4.159964526
Lansing Capital City Arpt,MI,USA,42.783,-84.583,0.056030258,10.21420997,16.24059385,0,60426.85761,6.791501373,2.930146551,3.861354823
Manistee (awos),MI,USA,44.267,-86.25,0.054243797,10.54885365,16.77267731,0,62293.22753,6.590609931,2.842356452,3.74825348
Menominee (awos),MI,USA,45.133,-87.633,0.057887683,9.878727704,15.70717705,0,58466.30628,7.00751244,3.028403021,3.979109419
Mount Clemens Selfridge Fld,MI,USA,42.617,-82.833,0.065264068,8.761296162,13.9304609,0,52136.52355,7.842303648,3.396074187,4.446229462
Muskegon County Arpt,MI,USA,43.167,-86.233,0.053240628,10.749998,17.09249681,0,63449.03707,6.475264757,2.790579188,3.684685569
Oakland Co Intl,MI,USA,42.667,-83.417,0.065669868,8.702464588,13.83691869,0,51756.91158,7.893017722,3.420982704,4.472035019
Oscoda Wurtsmith Afb,MI,USA,44.45,-83.4,0.054396135,10.52384952,16.73292074,0,62174.49534,6.605635119,2.847784379,3.757850739
Pellston Emmet County Ap,MI,USA,45.567,-84.783,0.054180525,10.56824927,16.80351634,0,62430.43892,6.580285035,2.83610945,3.744175585
Saginaw Tri City Intl Ap,MI,USA,43.533,-84.083,0.054739054,10.46155323,16.63386963,0,61866.44713,6.641463733,2.861964173,3.77949956
Sault Ste Marie Sanderson Fie,MI,USA,46.467,-84.35,0.054668887,10.46487113,16.63914509,0,61793.63138,6.640550776,2.86533662,3.775214155
St.clair County Int,MI,USA,42.917,-82.533,0.056269742,10.16290723,16.1590225,0,60050.82227,6.825162871,2.948494956,3.876667915
Traverse City Cherry Capital,MI,USA,44.733,-85.583,0.057683143,9.914278205,15.76370235,0,58664.05767,6.984350881,3.018194558,3.966156324
Aitkin Ndb(awos),MN,USA,46.55,-93.683,0.062276074,9.182656396,14.60042367,0,54514.91743,7.504937642,3.247909471,4.257028171
Albert Lea (awos),MN,USA,43.683,-93.367,0.05409473,10.58255236,16.82625825,0,62511.77255,6.571175379,2.832419414,3.738755965
Alexandria Municipal Ap,MN,USA,45.883,-95.4,0.053040547,10.79820507,17.16914606,0,63763.92966,6.448725744,2.776798178,3.671927566
Austin Muni,MN,USA,43.667,-92.933,0.057064428,10.02569769,15.94085933,0,59318.9524,6.911791245,2.984873059,3.926918185
Baudette International Ap,MN,USA,48.717,-94.6,0.046917666,12.22326867,19.43499719,0,71894.00606,5.746771177,2.462786605,3.283984572
Bemidji Municipal,MN,USA,47.5,-94.933,0.053175964,10.77928735,17.13906688,0,63713.22786,6.4594065,2.779007899,3.680398601
Benson Muni,MN,USA,45.317,-95.65,0.058507502,9.775087345,15.54238888,0,57856.40591,7.078711236,3.060327246,4.018383989
Brainerd Wieland,MN,USA,46.4,-94.133,0.059819721,9.558439345,15.19791856,0,56633.88779,7.227885576,3.126388381,4.101497195
Cambridge Muni,MN,USA,45.567,-93.267,0.049456357,11.57937369,18.41120417,0,68193.94743,6.041325746,2.596411975,3.444913771
Cloquet (awos),MN,USA,46.7,-92.5,0.053838263,10.63467466,16.90913271,0,62813.41733,6.541313488,2.818817493,3.722495996
Crane Lake (awos),MN,USA,46.267,-92.567,0.052793496,10.86008438,17.26753417,0,64189.30724,6.414539269,2.75839658,3.656142689
Crookston Muni Fld,MN,USA,47.85,-96.617,0.049633075,11.55916704,18.37907559,0,68178.41852,6.052919035,2.597003356,3.455915679
Detroit Lakes(awos),MN,USA,46.833,-95.883,0.046791062,12.26474295,19.50094129,0,72201.27559,5.728176938,2.452305652,3.275871287
Duluth International Arpt,MN,USA,46.833,-92.217,0.052417594,10.92623624,17.37271562,0,64494.3284,6.377820025,2.745350968,3.632469057
Ely Muni,MN,USA,47.817,-91.833,0.058408227,9.802019721,15.58521136,0,58104.76953,7.059156392,3.047246175,4.011910217
Eveleth Muni (awos),MN,USA,47.4,-92.5,0.057646054,9.936946477,15.7997449,0,58903.49984,6.969493576,3.005925646,3.96356793
Fairmont Muni(awos),MN,USA,43.65,-94.417,0.046796828,12.25069793,19.47860972,0,72056.77397,5.733566384,2.457223463,3.276342921
Faribault Muni Awos,MN,USA,44.333,-93.317,0.053049579,10.78554375,17.14901456,0,63624.9772,6.455491147,2.7828625,3.672628647
Fergus Falls(awos),MN,USA,46.283,-96.15,0.056506757,10.11990938,16.09065591,0,59807.05374,6.85219468,2.960512754,3.891681927
Flying Cloud,MN,USA,44.817,-93.45,0.051588157,11.09748115,17.64499502,0,65438.69668,6.28571539,2.705731926,3.579983463
Fosston(awos),MN,USA,47.583,-95.767,0.051751512,11.07066936,17.60236428,0,65306.10934,6.301492397,2.711225214,3.590267183
Glenwood (asos),MN,USA,45.65,-95.317,0.047700017,12.02549448,19.12053622,0,70810.89665,5.833954389,2.500456847,3.333497542
Grand Rapids(awos),MN,USA,47.217,-93.517,0.051091692,11.21449822,17.83105217,0,66148.76463,6.225132739,2.676687535,3.548445204
Hallock,MN,USA,48.783,-96.95,0.053380205,10.73372877,17.06662875,0,63406.91231,6.485840224,2.792433123,3.693407101
Hibbing Chisholm-hibbing Ap,MN,USA,47.383,-92.85,0.063196095,9.057002846,14.40063452,0,53844.8734,7.60349095,3.288326286,4.315164664
Hutchinson (awos),MN,USA,44.867,-94.383,0.054641634,10.47982949,16.66292888,0,61939.37325,6.63195901,2.858594562,3.773364448
International Falls Intl Ap,MN,USA,48.567,-93.4,0.057473603,9.955304861,15.82893473,0,58927.27269,6.957530005,3.004712977,3.952817029
Litchfield Muni,MN,USA,45.1,-94.5,0.045442539,12.63392806,20.08794561,0,74330.14256,5.572474704,2.382070007,3.190404697
Little Falls (awos),MN,USA,45.95,-94.35,0.058001467,9.86985327,15.6930667,0,58463.10993,7.014756883,3.028568592,3.986188291
Mankato(awos),MN,USA,44.217,-93.917,0.052853317,10.8286762,17.21759516,0,63894.14264,6.431294685,2.771139215,3.660155469
Marshall Ryan(awos),MN,USA,44.45,-95.817,0.049544598,11.57220602,18.39980757,0,68236.48927,6.045156591,2.594793252,3.450363339
Minneapolis Crystal,MN,USA,45.067,-93.35,0.065962295,8.673992127,13.79164748,0,51683.55019,7.916168314,3.425838554,4.49032976
Minneapolis-st Paul Int'l Arp,MN,USA,44.883,-93.233,0.048257708,11.88183002,18.89210973,0,70000.7965,5.89823428,2.529393911,3.368840369
Mora Muni (awos),MN,USA,45.883,-93.267,0.051115888,11.2061474,17.81777436,0,66083.48115,6.229342332,2.679331815,3.550010517
Morris Muni (awos),MN,USA,45.567,-95.967,0.049133756,11.66524802,18.54774436,0,68712.59411,6.001217812,2.576814135,3.424403677
New Ulm Muni (awos),MN,USA,44.317,-94.5,0.050888619,11.25763031,17.89963219,0,66376.9703,6.203091499,2.667485031,3.535606468
Orr,MN,USA,48.017,-92.867,0.058601483,9.771900219,15.53732135,0,57945.2595,7.079754363,3.055634531,4.024119832
Owatonna (awos),MN,USA,44.117,-93.25,0.052964458,10.81250677,17.19188576,0,63835.68264,6.440801552,2.773676989,3.667124563
Park Rapids Municipal Ap,MN,USA,46.9,-95.067,0.0623163,9.175830901,14.58957113,0,54467.11572,7.510354903,3.250759913,4.259594991
Pipestone (awos),MN,USA,43.983,-96.317,0.047104305,12.17342373,19.35574374,0,71638.88731,5.767348491,2.471557012,3.295791479
Red Wing,MN,USA,44.583,-92.483,0.054659694,10.48210499,16.66654693,0,61997.01568,6.630363082,2.855936756,3.774426326
Redwood Falls Muni,MN,USA,44.55,-95.083,0.071346636,8.008520332,12.73354733,0,47794.17679,8.536164527,3.704624346,4.831540181
Rochester International Arpt,MN,USA,43.9,-92.5,0.05225741,10.96737946,17.43813333,0,64766.48031,6.356058407,2.733814887,3.62224352
Roseau Muni (awos),MN,USA,48.85,-95.7,0.058210953,9.827222826,15.62528429,0,58188.72577,7.04239216,3.042849534,3.999542626
Silver Bay,MN,USA,47.2,-91.4,0.050706705,11.31624609,17.99283129,0,66840.71803,6.172847198,2.648977775,3.523869423
South St Paul Muni,MN,USA,44.85,-93.15,0.047718231,12.01237717,19.0996797,0,70693.50092,5.839334802,2.504609174,3.334725628
St Cloud Regional Arpt,MN,USA,45.55,-94.05,0.04805447,11.92849274,18.96630346,0,70232.45036,5.877062113,2.521051001,3.356011111
St Paul Downtown Ap,MN,USA,44.933,-93.05,0.055861785,10.23193606,16.26877834,0,60447.99407,6.779977611,2.929121987,3.850855624
Thief River(awos),MN,USA,48.067,-96.183,0.05253931,10.90828665,17.34417578,0,64435.43565,6.387955229,2.747860162,3.640095067
Two Harbors,MN,USA,47.05,-91.75,0.050596176,11.32039679,17.9994309,0,66733.63353,6.170322964,2.653228465,3.517094498
Wheaton Ndb (awos),MN,USA,45.7,-96.5,0.04876852,11.75953062,18.69765368,0,69268.82003,5.957339848,2.556122448,3.4012174
Willmar,MN,USA,45.117,-95.083,0.049550893,11.56623183,18.3903086,0,68149.59876,6.048932436,2.5981016,3.450830836
Winona Muni (awos),MN,USA,44.083,-91.7,0.061324913,9.317422544,14.81470184,0,55225.13677,7.403064355,3.206140014,4.196924341
Worthington (awos),MN,USA,43.65,-95.583,0.048230112,11.89532905,18.91357319,0,70085.51621,5.893390486,2.526336372,3.367054114
Cape Girardeau Municipal Ap,MO,USA,37.233,-89.567,0.045227768,12.65689894,20.12446931,0,74307.03928,5.559877886,2.38281063,3.177067255
Columbia Regional Airport,MO,USA,38.817,-92.217,0.043225186,13.26228165,21.08702782,0,77806.7841,5.325713694,2.275632079,3.050081615
Farmington,MO,USA,37.767,-90.4,0.038964626,14.74737775,23.44833063,0,86404.38413,4.829149327,2.049197367,2.779951959
Ft Lnrd Wd Aaf,MO,USA,37.75,-92.15,0.047143616,12.12775502,19.28313047,0,71226.88879,5.784417943,2.485853248,3.298564695
Jefferson City Mem,MO,USA,38.583,-92.15,0.041444702,13.83510675,21.99781974,0,81062.80953,5.121496356,2.184227564,2.937268792
Joplin Municipal Ap,MO,USA,37.15,-94.5,0.039343046,14.59357839,23.20378965,0,85447.73721,4.876149337,2.072139532,2.804009805
Kaiser Mem (awos),MO,USA,38.1,-92.55,0.043704636,13.10634543,20.83908923,0,76865.89811,5.38402165,2.303487182,3.080534467
Kansas City Downtown Ap,MO,USA,39.117,-94.6,0.0466136,12.28560768,19.53411621,0,72207.04403,5.71694193,2.452109743,3.264832187
Kansas City Int'l Arpt,MO,USA,39.3,-94.717,0.039860619,14.4130015,22.91667238,0,84469.76908,4.932874471,2.096130174,2.836744296
Kirksville Regional Ap,MO,USA,40.1,-92.55,0.048507466,11.79298428,18.750845,0,69341.47534,5.938367598,2.553444172,3.384923426
Poplar Bluff(amos),MO,USA,36.767,-90.467,0.042985479,13.33409271,21.20120742,0,78221.69194,5.298460569,2.26356156,3.034899008
Springfield Regional Arpt,MO,USA,37.233,-93.383,0.041349612,13.8667601,22.04814856,0,81260.70472,5.110142063,2.178908294,2.931233768
St Joseph Rosecrans Memorial,MO,USA,39.767,-94.9,0.043494077,13.17984321,20.9559507,0,77353.90341,5.356062796,2.28895511,3.067107686
St Louis Lambert Int'l Arpt,MO,USA,38.75,-90.367,0.044089639,12.9968405,20.6649764,0,76297.60638,5.425512938,2.320644352,3.104868585
St Louis Spirit Of St Louis A,MO,USA,38.65,-90.65,0.045806346,12.4960966,19.8687936,0,73397.00327,5.626077345,2.412354623,3.213722722
Vichy Rolla Natl Arpt,MO,USA,38.133,-91.767,0.051667601,11.05946416,17.58454802,0,65137.74262,6.303443889,2.718233124,3.585210765
Whiteman Afb,MO,USA,38.717,-93.55,0.042626739,13.45334751,21.39082254,0,78941.72576,5.255033117,2.24291546,3.012117657
Columbus Afb,MS,USA,33.65,-88.45,0.044419344,12.89060348,20.49605953,0,75688.38843,5.465122526,2.339323259,3.125799268
Golden Tri(awos),MS,USA,33.45,-88.583,0.039283044,14.60269513,23.21828526,0,85475.74318,4.871723882,2.0714606,2.800263282
Greenville Municipal,MS,USA,33.483,-90.983,0.038550173,14.89263822,23.67929477,0,87173.68899,4.784878624,2.031113291,2.753765334
Greenwood Leflore Arpt,MS,USA,33.5,-90.083,0.0392013,14.6252499,23.25414734,0,85590.55635,4.863798443,2.068681898,2.795116545
Gulfport Biloxi Int,MS,USA,30.4,-89.067,0.046876601,12.17924406,19.36499805,0,71446.19242,5.760009136,2.478222948,3.281786189
Hattiesburg Laurel,MS,USA,31.467,-89.333,0.039208526,14.63884197,23.27575873,0,85742.04998,4.860508586,2.065026844,2.795481741
Jackson International Ap,MS,USA,32.317,-90.083,0.040642654,14.09836392,22.41639864,0,82584.9065,5.030442312,2.143970787,2.886471525
Keesler Afb,MS,USA,30.417,-88.917,0.041944523,13.65463004,21.71086176,0,80046.11435,5.18095597,2.211970208,2.968985762
Mccomb Pike County Ap,MS,USA,31.233,-90.467,0.044648633,12.8181876,20.38091829,0,75240.01364,5.493640921,2.353263875,3.140377045
Meridian Key Field,MS,USA,32.333,-88.75,0.044622093,12.82950754,20.39891699,0,75320.14046,5.489429684,2.350760437,3.138669247
Meridian Naas,MS,USA,32.55,-88.567,0.044445854,12.87764893,20.47546181,0,75575.75863,5.470337348,2.342809524,3.127527823
Natchez Hardy(awos),MS,USA,31.617,-91.3,0.038988844,14.70419791,23.37967468,0,86026.94606,4.839852752,2.058188087,2.781664664
Tupelo C D Lemons Arpt,MS,USA,34.267,-88.767,0.04174793,13.7226978,21.8190895,0,80424.3805,5.15808881,2.201566492,2.956522318
Billings Logan Int'l Arpt,MT,USA,45.8,-108.55,0.040691828,14.11922398,22.44956612,0,82775.20993,5.028457552,2.139041721,2.889415832
Bozeman Gallatin Field,MT,USA,45.8,-111.15,0.042478651,13.51864637,21.49464773,0,79343.07292,5.234218602,2.231569962,3.002648639
Butte Bert Mooney Arpt,MT,USA,45.95,-112.5,0.03888281,14.78438511,23.50717233,0,86594.10649,4.819469122,2.044707707,2.774761415
Cut Bank Muni Ap,MT,USA,48.6,-112.367,0.043128196,13.32614413,21.18856917,0,78299.46116,5.305034761,2.26131333,3.043721431
Glasgow Intl Arpt,MT,USA,48.217,-106.617,0.043477186,13.21876731,21.01784003,0,77704.81973,5.344437778,2.278618162,3.065819615
Glendive(awos),MT,USA,47.133,-104.8,0.045564645,12.6098693,20.04969219,0,74199.50257,5.58435773,2.386264013,3.198093717
Great Falls Intl Arpt,MT,USA,47.467,-111.383,0.045451448,12.61676926,20.06066312,0,74157.67402,5.578696027,2.387609981,3.191086046
Havre City-county Ap,MT,USA,48.55,-109.767,0.043633086,13.17155144,20.94276678,0,77428.69531,5.362444516,2.286744107,3.075700409
Helena Regional Airport,MT,USA,46.6,-111.967,0.04208578,13.66021296,21.71973861,0,80206.96716,5.185201235,2.20753417,2.977667065
Kalispell Glacier Pk Int'l Ar,MT,USA,48.317,-114.25,0.050401234,11.37340049,18.08370677,0,67051.94063,6.14531646,2.640633152,3.504683308
Lewistown Municipal Arpt,MT,USA,47.05,-109.45,0.046037333,12.46896754,19.82565838,0,73370.1935,5.641341913,2.413236106,3.228105807
Livingston Mission Field,MT,USA,45.7,-110.45,0.039649912,14.48289072,23.02779625,0,84824.81796,4.910797191,2.087356471,2.82344072
Miles City Municipal Arpt,MT,USA,46.433,-105.883,0.039953452,14.40299959,22.90076935,0,84485.3876,4.938250398,2.09574267,2.842507728
Missoula International Ap,MT,USA,46.917,-114.1,0.04713286,12.17159551,19.35283686,0,71625.6425,5.769591576,2.472014045,3.297577531
Sidney-richland,MT,USA,47.7,-104.2,0.050322255,11.37824411,18.09140813,0,67027.29756,6.141398721,2.641603998,3.499794722
Wolf Point Intl [fort Peck - Surfrad],MT,USA,48.31,-105.1,0.049040956,11.68743795,18.58302633,0,68854.08421,5.990030531,2.571518978,3.418511553
Asheville Regional Arpt,NC,USA,35.433,-82.533,0.042079017,13.62168838,21.65848453,0,79879.82088,5.194029577,2.216575072,2.977454504
Cape Hatteras Nws Bldg,NC,USA,35.267,-75.55,0.040959006,14.00114275,22.26181697,0,82061.85405,5.064092829,2.157636184,2.906456645
Charlotte Douglas Intl Arpt,NC,USA,35.217,-80.95,0.040972357,13.98765312,22.24036846,0,81938.92572,5.068234411,2.16087316,2.907361251
Cherry Point Mcas,NC,USA,34.9,-76.883,0.046916278,12.22730034,19.44140755,0,72028.69812,5.741973584,2.458181256,3.283792328
Dare Co Rgnl,NC,USA,35.917,-75.7,0.041837212,13.70017233,21.78327401,0,80321.89061,5.166514117,2.204375664,2.962138452
Elizabeth City Coast Guard Ai [nrel],NC,USA,36.3,-76.25,0.039620735,14.48486501,23.03093537,0,84840.46686,4.908589131,2.086971457,2.821617674
Fayetteville Pope Afb,NC,USA,35.167,-79.017,0.047373677,12.08470471,19.2146805,0,71094.01319,5.803476057,2.490499332,3.312976726
Fayetteville Rgnl G,NC,USA,34.983,-78.883,0.046272975,12.37444507,19.67536767,0,72744.52742,5.677227375,2.433992003,3.243235372
Fort Bragg Simmons Aaf,NC,USA,35.133,-78.933,0.04914619,11.65211309,18.52685981,0,68664.11215,6.003852251,2.578633554,3.425218697
Goldsboro Seymour Johnson Afb,NC,USA,35.35,-77.967,0.045626001,12.54919275,19.95321647,0,73729.31151,5.60374062,2.401481821,3.202258799
Greensboro Piedmont Triad Int,NC,USA,36.1,-79.95,0.044722014,12.81344379,20.37337563,0,75280.45069,5.496910629,2.351999816,3.144910813
Hickory Regional Ap,NC,USA,35.733,-81.383,0.044527431,12.87412076,20.46985201,0,75653.37805,5.472950842,2.340405834,3.132545008
Jacksonville (awos),NC,USA,34.833,-77.617,0.037800166,15.22182025,24.2026942,0,89178.1809,4.691539099,1.985459235,2.706079864
Kinston Stallings Afb,NC,USA,35.317,-77.633,0.050753166,11.26375917,17.90937708,0,66353.47332,6.195635367,2.668429635,3.527205732
New Bern Craven Co Regl Ap,NC,USA,35.067,-77.05,0.051867731,11.02020607,17.52212765,0,64951.84715,6.323846661,2.726012832,3.597833828
New River Mcaf,NC,USA,34.7,-77.383,0.05303317,10.79032859,17.15662245,0,63725.13184,6.449996559,2.778488776,3.671507783
Pitt Greenville Arp,NC,USA,35.633,-77.4,0.041486958,13.82195983,21.97691613,0,81047.46571,5.124546862,2.184641079,2.939905783
Raleigh Durham International,NC,USA,35.867,-78.783,0.044908171,12.7688802,20.30251952,0,75082.76388,5.51482091,2.358192432,3.156628477
Rocky Mount Wilson,NC,USA,35.85,-77.9,0.045413119,12.61673826,20.06061384,0,74168.68327,5.57595017,2.387255576,3.188694594
Southern Pines Awos,NC,USA,35.233,-79.4,0.035537406,16.19859936,25.75577299,0,94731.72309,4.431768391,1.869064013,2.562704379
Wilmington International Arpt,NC,USA,34.267,-77.9,0.041110919,13.93210348,22.15204453,0,81597.49708,5.086099866,2.169914896,2.91618497
Winston-salem Reynolds Ap,NC,USA,36.133,-80.217,0.045551588,12.58352686,20.00780771,0,74007.31603,5.589885132,2.392460795,3.197424337
Bismarck Municipal Arpt [isis],ND,USA,46.77,-100.77,0.043753273,13.13356396,20.8823667,0,77205.86498,5.376669465,2.293344063,3.083325402
Devils Lake(awos),ND,USA,48.117,-98.917,0.045656374,12.59180483,20.02096967,0,74163.00735,5.5912627,2.387438279,3.203824421
Dickinson Municipal Ap,ND,USA,46.8,-102.8,0.046503794,12.3442412,19.6273435,0,72672.62864,5.694043166,2.436400073,3.257643093
Fargo Hector International Ap,ND,USA,46.933,-96.817,0.048016244,11.95954056,19.0156695,0,70525.47933,5.863969494,2.510576207,3.353393287
Grand Forks Af,ND,USA,47.967,-97.4,0.061556128,9.293436659,14.77656429,0,55161.75588,7.421209883,3.209823865,4.211386019
Grand Forks International Ap,ND,USA,47.95,-97.183,0.050277571,11.4145538,18.14914053,0,67374.96517,6.124675555,2.627972841,3.496702715
Jamestown Municipal Arpt,ND,USA,46.917,-98.683,0.055024915,10.40594858,16.54545824,0,61522.77738,6.67559336,2.877951243,3.797642117
Minot Afb,ND,USA,48.417,-101.35,0.049766976,11.51902587,18.31525114,0,67912.84778,6.071634048,2.607158829,3.464475219
Minot Faa Ap,ND,USA,48.267,-101.283,0.045888272,12.52280235,19.91125573,0,73744.2334,5.61955152,2.40099589,3.21855563
Williston Sloulin Intl Ap,ND,USA,48.2,-103.65,0.043962689,13.06993655,20.78119912,0,76831.20928,5.40113135,2.304527192,3.096604158
Ainsworth Municipal,NE,USA,42.583,-100,0.036572359,15.74427269,25.03339357,0,92130.23041,4.550112601,1.921840947,2.628271654
Alliance Municipal,NE,USA,42.05,-102.8,0.034039581,16.95235348,26.95424203,0,99119.00569,4.254000991,1.78633413,2.467666861
Beatrice Municipal,NE,USA,40.3,-96.75,0.038439552,14.9600377,23.78645994,0,87625.49468,4.767286758,2.020640682,2.746646076
Bellevue Offutt Afb,NE,USA,41.117,-95.917,0.050829135,11.26927709,17.91815058,0,66467.77253,6.1956649,2.663840961,3.531823939
Brewster Field Arpt,NE,USA,40.45,-99.333,0.04134808,13.88161637,22.07177002,0,81365.91968,5.107164449,2.176090733,2.931073716
Broken Bow Muni,NE,USA,41.433,-99.65,0.044534763,12.86683231,20.45826337,0,75508.62602,5.477996549,2.344892448,3.133104101
Chadron Municipal Ap,NE,USA,42.833,-103.083,0.036359692,15.83497521,25.17761058,0,92650.3039,4.525852969,1.911053098,2.614799871
Columbus Muni,NE,USA,41.45,-97.333,0.042843234,13.38776922,21.28655306,0,78519.24531,5.280840583,2.254983669,3.025856914
Falls City Brenner,NE,USA,40.083,-95.6,0.045507588,12.59127655,20.02012972,0,73984.1849,5.587914428,2.393208796,3.194705631
Fremont Muni Arpt,NE,USA,41.45,-96.517,0.047186433,12.15087706,19.31989453,0,71507.21377,5.777111031,2.476108136,3.301002895
Grand Island Central Ne Regio,NE,USA,40.967,-98.317,0.038089589,15.09781279,24.00552234,0,88393.75083,4.727560168,2.003078718,2.72448145
Hastings Municipal,NE,USA,40.6,-98.433,0.039210881,14.66497602,23.31731186,0,85909.54413,4.856536358,2.061000755,2.795535603
Imperial Faa Ap,NE,USA,40.517,-101.617,0.035567457,16.20417677,25.76464106,0,94789.95811,4.432462266,1.867915739,2.564546528
Kearney Muni (awos),NE,USA,40.733,-99,0.03881518,14.81330679,23.5531578,0,86768.17043,4.81106768,2.040605864,2.770461816
Lincoln Municipal Arpt,NE,USA,40.833,-96.767,0.04494409,12.77218466,20.30777361,0,75117.1986,5.515948456,2.357111407,3.158837049
Mccook Municipal,NE,USA,40.2,-100.583,0.033334255,17.30522125,27.51530179,0,101114.6502,4.174077053,1.751078266,2.422998787
Norfolk Karl Stefan Mem Arpt,NE,USA,41.983,-97.433,0.040065243,14.35631432,22.82653976,0,84210.9898,4.952187496,2.102571548,2.849615949
North Platte Regional Ap,NE,USA,41.117,-100.667,0.037607413,15.29246508,24.31501947,0,89498.75205,4.672278544,1.978347625,2.693930919
Omaha Eppley Airfield,NE,USA,41.317,-95.9,0.04758618,12.04137394,19.14578457,0,70852.64455,5.825368802,2.498983526,3.326385276
Omaha Wsfo,NE,USA,41.367,-96.017,0.043944492,13.05120999,20.75142388,0,76628.11716,5.406248098,2.310635011,3.095613087
Ord Sharp Field,NE,USA,41.617,-98.95,0.04119903,13.93616251,22.15849838,0,81739.19937,5.087730378,2.166153157,2.921577221
O`neill Baker Field,NE,USA,42.467,-98.683,0.044870258,12.77539381,20.31287616,0,75038.2679,5.513893986,2.359590785,3.154303201
Scottsbluff W B Heilig Field,NE,USA,41.867,-103.6,0.037225122,15.46589364,24.59077089,0,90540.93469,4.62521196,1.955575635,2.669636325
Sidney Municipal Ap,NE,USA,41.1,-102.983,0.03507185,16.42761699,26.11991102,0,96040.56985,4.376762571,1.843592321,2.53317025
Tekamah (asos),NE,USA,41.767,-96.167,0.047592661,12.02556049,19.12064118,0,70676.31824,5.832149782,2.505218089,3.326931694
Valentine Miller Field,NE,USA,42.867,-100.55,0.039653943,14.47811971,23.02021034,0,84783.63926,4.912084991,2.088370281,2.82371471
Berlin Municipal,NH,USA,44.583,-71.183,0.066961318,8.530194711,13.56300959,0,50755.97763,8.042335128,3.488446107,4.553889021
Concord Municipal Arpt,NH,USA,43.2,-71.5,0.052985893,10.80755745,17.18401634,0,63824.41355,6.442635395,2.77416672,3.668468675
Dillant Hopkins,NH,USA,42.9,-72.267,0.050749712,11.3021702,17.97045062,0,66702.93612,6.181118936,2.654449508,3.526669428
Laconia Muni (awos),NH,USA,43.567,-71.417,0.046909571,12.22275013,19.4341727,0,71917.70998,5.745437398,2.461974877,3.28346252
Lebanon Municipal,NH,USA,43.633,-72.3,0.063588273,8.9919508,14.29720177,0,53428.76157,7.654075626,3.313936255,4.340139371
Manchester Airport,NH,USA,42.933,-71.433,0.060730573,9.41193015,14.96496894,0,55805.26988,7.332011772,3.172810104,4.159201668
Mount Washington,NH,USA,44.267,-71.3,0.078650022,7.26005184,11.54348243,0,43503.94616,9.36403013,4.069962614,5.294067516
Pease Intl Tradepor,NH,USA,43.083,-70.817,0.059380802,9.629994028,15.3116905,0,57073.57208,7.175954546,3.102303303,4.073651243
Atlantic City Intl Ap,NJ,USA,39.45,-74.567,0.047220808,12.14370718,19.30849442,0,71512.74967,5.779052356,2.475916457,3.303135899
Belmar Asc,NJ,USA,40.183,-74.067,0.045868825,12.51469026,19.89835751,0,73684.50241,5.620333441,2.402942211,3.21739123
Caldwell Essex Co.,NJ,USA,40.883,-74.283,0.055909922,10.23821865,16.27876766,0,60584.30765,6.776228674,2.922531527,3.853697147
Cape May Co,NJ,USA,39,-74.917,0.041362104,13.88130822,22.07128007,0,81424.55349,5.106433403,2.174523732,2.931909671
Mcguire Afb,NJ,USA,40.017,-74.6,0.056238688,10.19012781,16.20230322,0,60395.16035,6.806034718,2.93168438,3.874350338
Millville Municipal Ap,NJ,USA,39.367,-75.083,0.052723188,10.85517613,17.25973005,0,64079.93463,6.414983881,2.763104646,3.651879235
Newark International Arpt,NJ,USA,40.717,-74.183,0.053575467,10.68878761,16.9951723,0,63170.41725,6.508676252,2.802887314,3.705788938
Teterboro Airport,NJ,USA,40.85,-74.067,0.061078351,9.368005813,14.89512924,0,55636.54589,7.363479787,3.182431985,4.181047802
Trenton Mercer County Ap,NJ,USA,40.283,-74.817,0.051481738,11.12277053,17.68520514,0,65627.66551,6.271128125,2.697941032,3.573187093
Albuquerque Intl Arpt [isis],NM,USA,35.04,-106.62,0.027042561,21.43441489,34.08071968,0,124815.6792,3.442702917,1.418569372,2.024133545
Carlsbad Cavern City Air Term,NM,USA,32.333,-104.267,0.027952596,20.70132644,32.91510903,0,120571.0773,3.550376956,1.468508854,2.081868102
Clayton Municipal Airpark,NM,USA,36.45,-103.15,0.027774285,20.870686,33.18439074,0,121624.3834,3.526279323,1.455791108,2.070488215
Clovis Cannon Afb,NM,USA,34.383,-103.317,0.029146872,19.84986825,31.56129052,0,115699.5897,3.687890098,1.530339813,2.157550286
Clovis Muni  (awos),NM,USA,34.433,-103.083,0.027162138,21.34169633,33.93329716,0,124293.1055,3.456239549,1.424533551,2.031705998
Deming Muni,NM,USA,32.25,-107.717,0.024603494,23.62085557,37.55716035,0,137399.6003,3.158132079,1.288647944,1.869484134
Farmington Four Corners Regl,NM,USA,36.75,-108.233,0.02645398,21.93928277,34.88345961,0,127752.1077,3.372748675,1.385963066,1.986785609
Gallup Sen Clarke Fld,NM,USA,35.517,-108.783,0.027543879,21.02077396,33.42303059,0,122429.031,3.502164643,1.446223133,2.05594151
Holloman Afb,NM,USA,32.85,-106.1,0.027331899,21.19162623,33.6946857,0,123407.6307,3.477251708,1.43475486,2.042496847
Las Cruces Intl,NM,USA,32.283,-106.917,0.025345052,22.91972333,36.4423601,0,133381.6017,3.243954359,1.327467255,1.916487104
Las Vegas Municipal Arpt,NM,USA,35.65,-105.15,0.028030176,20.64009689,32.81775406,0,120226.162,3.559510755,1.472721837,2.086788919
Roswell Industrial Air Park,NM,USA,33.3,-104.533,0.027188971,21.31189257,33.88590918,0,124132.5883,3.459792495,1.426375629,2.033416866
Santa Fe County Municipal Ap,NM,USA,35.617,-106.083,0.025643664,22.64906039,36.01200602,0,131830.8172,3.278496769,1.34308283,1.935413939
Sierra Blanca Rgnl,NM,USA,33.467,-105.533,0.026486948,21.85470178,34.74897583,0,127160.6522,3.381393361,1.392409516,1.988983846
Taos Muni Apt(awos),NM,USA,36.45,-105.667,0.026004109,22.32243142,35.49266595,0,129954.8904,3.320742827,1.362470505,1.958272322
Truth Or Consequences Muni Ap,NM,USA,33.233,-107.267,0.023973841,24.28810493,38.61808684,0,141290.6307,3.082675734,1.253159641,1.829516093
Tucumcari Faa Ap,NM,USA,35.183,-103.6,0.029869259,19.35207828,30.76980447,0,112850.6078,3.77233108,1.568974133,2.203356947
Elko Municipal Arpt,NV,USA,40.833,-115.8,0.031739839,18.21352701,28.95950794,0,106366.5573,3.986487305,1.664617897,2.321869408
Ely Yelland Field,NV,USA,39.3,-114.85,0.030665671,18.86203123,29.99062966,0,110083.5549,3.862196644,1.608411726,2.253784918
Fallon Naas,NV,USA,39.417,-118.717,0.027201477,21.3563254,33.95655738,0,124484.1896,3.456448694,1.422346884,2.03410181
Las Vegas Mccarran Intl Ap,NV,USA,36.083,-115.15,0.025488758,22.82642662,36.29401833,0,132938.0046,3.257421424,1.33189684,1.925524584
Lovelock Derby Field,NV,USA,40.067,-118.55,0.030747006,18.80743618,29.90382352,0,109752.2269,3.872221262,1.613267312,2.25895395
Mercury Desert Rock Ap [surfrad],NV,USA,36.63,-116.02,0.024361573,23.93492766,38.05653497,0,139345.8289,3.124677116,1.270649547,1.85402757
Nellis Afb,NV,USA,36.25,-115.033,0.028834793,20.07314807,31.91630543,0,116997.7777,3.651114151,1.51335943,2.137754721
Reno Tahoe International Ap,NV,USA,39.483,-119.767,0.029335913,19.75343509,31.40796179,0,115242.3298,3.705856477,1.536411907,2.16944457
Tonopah Airport,NV,USA,38.067,-117.083,0.026825351,21.6720269,34.45852277,0,126318.7815,3.411928601,1.401689433,2.010239168
Winnemucca Municipal Arpt,NV,USA,40.9,-117.8,0.030741694,18.83395552,29.94598928,0,109979.7075,3.868477388,1.609930453,2.258546935
Adirondack Rgnl,NY,USA,44.383,-74.2,0.056379987,10.15465971,16.14590893,0,60098.45875,6.829627059,2.946157863,3.883469196
Albany County Ap,NY,USA,42.75,-73.8,0.055321001,10.34198818,16.4437612,0,61131.81778,6.712832763,2.896356729,3.816476034
Binghamton Edwin A Link Field,NY,USA,42.2,-75.983,0.059425607,9.615473761,15.28860328,0,56936.38587,7.186387319,3.10977818,4.076609139
Buffalo Niagara Intl Ap,NY,USA,42.933,-78.733,0.05571743,10.26500695,16.32136104,0,60656.87574,6.760682695,2.919035103,3.841647592
Elmira Corning Regional Ap,NY,USA,42.167,-76.9,0.070570323,8.093504252,12.86867176,0,48271.22989,8.450439461,3.6680125,4.782426961
Fort Drum Wheeler-s,NY,USA,44.05,-75.717,0.06944745,8.217913462,13.0664824,0,48922.47766,8.330668352,3.619184636,4.711483716
Glens Falls Ap,NY,USA,43.35,-73.617,0.071311134,8.006153048,12.72978335,0,47752.00445,8.537304003,3.70789609,4.829407912
Islip Long Isl Macarthur Ap,NY,USA,40.783,-73.1,0.05166611,11.09021782,17.63344633,0,65482.95633,6.288691659,2.703903137,3.584788522
Jamestown (awos),NY,USA,42.15,-79.267,0.064492758,8.851787222,14.07434168,0,52526.86713,7.768525897,3.370836945,4.397688952
Massena Ap,NY,USA,44.933,-74.85,0.053188835,10.75362882,17.09826983,0,63430.77433,6.472866215,2.79138264,3.681483576
Monticello(awos),NY,USA,41.7,-74.8,0.059031633,9.706345756,15.43308975,0,57608.48112,7.1247751,3.073497697,4.051277403
New York Central Prk Obs Belv,NY,USA,40.783,-73.967,0.05195436,11.01936874,17.5207963,0,65041.56159,6.325386654,2.722252739,3.603133915
New York J F Kennedy Int'l Ar,NY,USA,40.65,-73.8,0.050553442,11.32603117,18.00838956,0,66775.49483,6.165964195,2.651565169,3.514399026
New York Laguardia Arpt,NY,USA,40.783,-73.883,0.050229323,11.41179325,18.14475127,0,67333.84158,6.123317455,2.629577851,3.493739604
Niagara Falls Af,NY,USA,43.1,-78.95,0.071457345,7.98168196,12.69087432,0,47525.71952,8.564455869,3.725550515,4.838905354
Poughkeepsie Dutchess Co Ap,NY,USA,41.633,-73.883,0.065373872,8.742959443,13.90130551,0,52012.52865,7.857413519,3.404170218,4.453243301
Republic,NY,USA,40.717,-73.417,0.048392941,11.85117693,18.84337132,0,69865.04073,5.91167099,2.534308806,3.377362183
Rochester Greater Rochester I,NY,USA,43.117,-77.683,0.056154284,10.17547259,16.17900141,0,60085.91497,6.816222057,2.946772914,3.869449143
Stewart Field,NY,USA,41.5,-74.1,0.058390641,9.793049601,15.57094887,0,57969.28866,7.065348446,3.054367926,4.01098052
Syracuse Hancock Int'l Arpt,NY,USA,43.117,-76.1,0.055021158,10.39810553,16.5329878,0,61427.29247,6.679936231,2.882424832,3.797511399
Utica Oneida County Ap,NY,USA,43.15,-75.383,0.064787534,8.810334453,14.00843178,0,52285.01711,7.802805837,3.386429087,4.41637675
Watertown Ap,NY,USA,44,-76.017,0.067009787,8.519032628,13.54526188,0,50643.29922,8.053288994,3.496207683,4.557081312
Westhampton Gabreski Ap,NY,USA,40.85,-72.633,0.056840714,10.07111806,16.01307771,0,59637.08791,6.881591636,2.968950207,3.912641429
White Plains Westchester Co A,NY,USA,41.067,-73.717,0.057920915,9.885122292,15.71734444,0,58597.83104,7.00262512,3.021605682,3.981019438
Akron Akron-canton Reg Ap,OH,USA,40.917,-81.433,0.06271998,9.112255935,14.48848694,0,54084.29534,7.55899448,3.273769454,4.285225026
Burke Lakefront,OH,USA,41.517,-81.683,0.06569815,8.693816817,13.82316874,0,51678.22535,7.90010491,3.426191546,4.473913364
Cincinnati Municipal Ap Lunki,OH,USA,39.1,-84.417,0.057362462,9.964440216,15.84345994,0,58932.04087,6.950370551,3.004469866,3.945900685
Cleveland Hopkins Intl Ap,OH,USA,41.4,-81.85,0.057873957,9.881478211,15.71155036,0,58479.86979,7.005940421,3.027700631,3.97823979
Columbus Port Columbus Intl A,OH,USA,39.983,-82.883,0.056701509,10.08704141,16.03839584,0,59662.84369,6.871624767,2.967668547,3.903956221
Dayton International Airport,OH,USA,39.9,-84.217,0.053708104,10.6499355,16.93339745,0,62859.70827,6.531096653,2.816741671,3.714354982
Dayton Wright Patterson Afb,OH,USA,39.833,-84.05,0.061402743,9.298889669,14.78523457,0,55094.27369,7.415694334,3.213755408,4.201938926
Findlay Airport,OH,USA,41.017,-83.667,0.059433384,9.623501556,15.30136747,0,57037.40955,7.181236236,3.104270204,4.076966032
Mansfield Lahm Municipal Arpt,OH,USA,40.817,-82.517,0.060206569,9.485717182,15.08229032,0,56152.97696,7.279330876,3.153163655,4.126167221
Ohio State Universi,OH,USA,40.067,-83.067,0.059185651,9.65302269,15.34830608,0,57145.15585,7.159844556,3.098417161,4.061427395
Toledo Express Airport,OH,USA,41.583,-83.8,0.053209972,10.7609336,17.10988442,0,63550.14635,6.468816574,2.78613934,3.682677234
Youngstown Regional Airport,OH,USA,41.25,-80.667,0.064171627,8.898384076,14.14843068,0,52813.32621,7.729854107,3.352553586,4.377300521
Zanesville Municipal Ap,OH,USA,39.95,-81.9,0.071348219,7.994975193,12.71201056,0,47635.28529,8.548904214,3.716981406,4.831922807
Altus Afb,OK,USA,34.65,-99.267,0.033304014,17.30401818,27.5133889,0,101060.489,4.173156717,1.752016717,2.42114
Bartlesville Philli,OK,USA,36.767,-96.017,0.043294237,13.24432097,21.05847034,0,77750.86441,5.331681562,2.277268748,3.054412814
Clinton-sherman,OK,USA,35.333,-99.2,0.032921592,17.50898929,27.83929297,0,102211.9068,4.12918729,1.732280257,2.396907034
Fort Sill Post Field Af,OK,USA,34.65,-98.4,0.033502298,17.19180515,27.3349702,0,100387.6672,4.19749849,1.763759135,2.433739355
Gage Airport,OK,USA,36.3,-99.767,0.030048081,19.22934611,30.57466032,0,112124.8233,3.793839788,1.5791301,2.214709688
Hobart Municipal Ap,OK,USA,35,-99.05,0.032761503,17.60798156,27.99669067,0,102792.6462,4.109221122,1.72249354,2.386727582
Lawton Municipal,OK,USA,34.567,-98.417,0.033708331,17.06976392,27.14092463,0,99642.88299,4.223796111,1.776942401,2.446853711
Mcalester Municipal Ap,OK,USA,34.9,-95.783,0.036643829,15.69264274,24.95130196,0,91762.98013,4.562424982,1.929532456,2.632892526
Oklahoma City Tinker Afb,OK,USA,35.417,-97.383,0.037989713,15.11824945,24.03801662,0,88478.95222,4.719376632,2.001149842,2.71822679
Oklahoma City Wiley,OK,USA,35.533,-97.65,0.03774671,15.22021294,24.20013857,0,89043.56626,4.691285816,1.988460818,2.702824998
Oklahoma City Will Rogers Wor,OK,USA,35.383,-97.6,0.034780974,16.54556814,26.30745335,0,96655.22747,4.346682367,1.831868414,2.514813954
Ponca City Municipal Ap [sgp - Arm],OK,USA,36.61,-97.49,0.035947249,15.9913271,25.42621009,0,93443.19436,4.483618525,1.894837319,2.588781206
Stillwater Rgnl,OK,USA,36.15,-97.083,0.036277223,15.85452008,25.20868693,0,92685.87129,4.51997485,1.910319749,2.609655101
Tulsa International Airport,OK,USA,36.2,-95.883,0.037658927,15.2539958,24.25385332,0,89231.36119,4.681546382,1.984275939,2.697270444
Vance Afb,OK,USA,36.333,-97.917,0.035770802,16.08169782,25.56989954,0,94021.13039,4.460731865,1.883190006,2.577541859
Astoria Regional Airport,OR,USA,46.15,-123.883,0.07113435,8.007773526,12.73235991,0,47589.03885,8.539301034,3.720593515,4.818707519
Aurora State,OR,USA,45.25,-122.767,0.054181459,10.55796785,16.78716889,0,62304.11642,6.586225564,2.841859694,3.74436587
Baker Municipal Ap,OR,USA,44.833,-117.817,0.037717996,15.26956612,24.27861013,0,89447.06745,4.680324036,1.979490759,2.700833276
Burns Municipal Arpt [uo],OR,USA,43.52,-119.02,0.035875652,16.05986782,25.53518983,0,93940.63217,4.468902246,1.884803719,2.584098527
Corvallis Muni,OR,USA,44.483,-123.283,0.048545004,11.79010676,18.74626974,0,69325.83356,5.9412911,2.554020297,3.387270803
Eugene Mahlon Sweet Arpt [uo],OR,USA,44.05,-123.07,0.04845722,11.80706471,18.77323289,0,69365.33538,5.934344781,2.552565848,3.381778933
Klamath Falls Intl Ap [uo],OR,USA,42.22,-121.74,0.031964077,18.10536448,28.78752952,0,105791.1043,4.009693381,1.673672614,2.336020768
La Grande Muni Ap,OR,USA,45.283,-118,0.039800026,14.4371984,22.95514545,0,84580.85343,4.926290493,2.093377223,2.83291327
Lakeview (awos),OR,USA,42.167,-120.4,0.031911486,18.13262343,28.83087125,0,105940.7974,4.004004036,1.671307737,2.332696299
North Bend Muni Airport,OR,USA,43.417,-124.25,0.050099959,11.41439471,18.14888759,0,67153.04312,6.122516112,2.636657544,3.485858568
Pendleton E Or Regional Ap,OR,USA,45.7,-118.833,0.039744818,14.45838191,22.98882723,0,84701.13491,4.919816552,2.090404486,2.829412067
Portland Hillsboro,OR,USA,45.533,-122.95,0.055330454,10.33952775,16.43984912,0,61081.77043,6.715848253,2.898729855,3.817118398
Portland International Ap,OR,USA,45.6,-122.617,0.059360369,9.619501838,15.29500792,0,56878.35214,7.18557673,3.112951122,4.072625608
Portland Troutdale,OR,USA,45.55,-122.4,0.058791001,9.726615334,15.46531838,0,57570.24152,7.111901008,3.075539188,4.03636182
Redmond Roberts Field,OR,USA,44.25,-121.167,0.0375958,15.31697485,24.35399001,0,89708.51192,4.666824237,1.973721782,2.693102455
Roseburg Regional Ap,OR,USA,43.233,-123.35,0.044166193,12.9690935,20.62085867,0,76054.39216,5.437864922,2.328065528,3.109799394
Salem Mcnary Field,OR,USA,44.9,-123,0.05206061,10.995891,17.48346668,0,64825.54291,6.341273284,2.73132411,3.609949174
Sexton Summit,OR,USA,42.6,-123.367,0.032045814,18.05725132,28.7110296,0,105522.5379,4.019133464,1.67793229,2.341201174
Allentown Lehigh Valley Intl,PA,USA,40.65,-75.45,0.054488737,10.50104468,16.69666104,0,62042.09234,6.617610266,2.853861779,3.763748487
Altoona Blair Co Arpt,PA,USA,40.3,-78.317,0.058873824,9.728985062,15.46908625,0,57728.20405,7.108441796,3.06712356,4.041318237
Bradford Regional Ap,PA,USA,41.8,-78.633,0.064803803,8.822689562,14.0280764,0,52472.81366,7.791418883,3.374309316,4.417109567
Butler Co. (awos),PA,USA,40.783,-79.95,0.05360203,10.69120551,16.99901677,0,63200.77903,6.508950495,2.801540803,3.707409691
Dubois Faa Ap,PA,USA,41.183,-78.9,0.061436454,9.315631414,14.81185395,0,55314.22805,7.404717274,3.200976088,4.203741187
Erie International Ap,PA,USA,42.083,-80.183,0.057258345,9.985033133,15.87620268,0,59035.07187,6.938532421,2.999226322,3.939306099
Franklin,PA,USA,41.383,-79.867,0.054185662,10.56590927,16.79979574,0,62452.51167,6.579579027,2.835107078,3.744471948
Harrisburg Capital City Arpt,PA,USA,40.217,-76.85,0.054233104,10.55733696,16.78616577,0,62412.88282,6.584370466,2.836907217,3.747463249
Johnstown Cambria County Ap,PA,USA,40.317,-78.833,0.067778512,8.434286337,13.41051528,0,50261.80594,8.128235253,3.522744275,4.605490978
Lancaster,PA,USA,40.117,-76.3,0.061455946,9.308625422,14.80071442,0,55282.21132,7.407825758,3.202829932,4.204995826
Middletown Harrisburg Intl Ap,PA,USA,40.2,-76.767,0.060394118,9.473895418,15.06349372,0,56230.55505,7.286542392,3.148813423,4.137728969
Philadelphia International Ap,PA,USA,39.867,-75.233,0.048665082,11.76123779,18.70036808,0,69227.64576,5.952463345,2.557642741,3.394820604
Philadelphia Ne Philadelphia,PA,USA,40.083,-75.017,0.052756779,10.85282423,17.25599053,0,64084.70543,6.416862135,2.762898946,3.653963188
Pittsburgh Allegheny Co Ap,PA,USA,40.35,-79.917,0.069071945,8.267758348,13.14573577,0,49257.05025,8.282171203,3.594601809,4.687569394
Pittsburgh International Ap,PA,USA,40.5,-80.233,0.058952477,9.703390354,15.42839066,0,57505.93034,7.125460225,3.078978681,4.046481545
Reading Spaatz Field,PA,USA,40.367,-75.967,0.058684091,9.738024927,15.48345963,0,57650.55967,7.100869998,3.071254387,4.029615611
