City,State,Country,Latitude,Longitude,avg_DNI,avg_GHI,avg_Tdry,avg_Wspd,avg_day,spring_DNI,summer_DNI,autumn_DNI,winter_DNI,spring_GHI,summer_GHI,autumn_GHI,winter_GHI,spring_Tdry,summer_Tdry,autumn_Tdry,winter_Tdry,spring_Wspd,summer_Wspd,autumn_Wspd,winter_Wspd,spring_day,summer_day,autumn_day,winter_day,annual_energy,capacity_factor,annual_electricity_consumption,lcoh
Adak Nas,AK,USA,51.883,-176.65,1.245093151,2.058312329,4.36033105,6.137237443,0.269520548,1596.549451,1091.369565,1731.065934,569.3333333,2910.659341,2871.228261,1692.67033,758.0888889,2.643910256,8.283967391,5.903617216,0.583055556,6.611492674,4.930797101,6.426694139,6.675185185,7.912087912,5.402173913,6.978021978,5.655555556,1054238.115,2.406936335,3713.762661,0.391203635
Ambler,AK,USA,67.1,-157.85,2.947967123,2.177356164,-3.11359589,2.809885845,0.354794521,3769.505495,5926.304348,1384.681319,687.3,3126.505495,4593.673913,789.1538462,175.6333333,-2.691208791,11.18269928,-3.698855311,-17.60462963,3.114239927,2.524592391,2.263232601,3.383055556,11.59340659,14.82608696,4.076923077,3.544444444,2308205.537,5.269875656,4259.15437,0.17923381
Anaktuvuk Pass,AK,USA,68.133,-151.733,2.632046575,2.076084932,-6.459394977,3.863253425,0.338812785,4525.956044,3945.25,1681.10989,366.4555556,3198.450549,4061.23913,895.7582418,128.6666667,-7.063644689,7.576811594,-6.113507326,-20.63407407,3.67724359,3.886820652,3.726877289,4.214861111,11.56043956,12.76086957,5.714285714,2.477777778,1916268.467,4.375042161,4197.13063,0.215686279
Anchorage Elmendorf,AK,USA,61.25,-149.8,2.383421918,2.571347945,4.723892694,3.086712329,0.404109589,3610.142857,3896.815217,1677.802198,335.9888889,3694.604396,4830.565217,1372.230769,367.2,4.289239927,15.11105072,2.205357143,-2.844351852,3.517628205,3.203804348,2.933333333,2.724490741,12.51648352,14.90217391,7.373626374,3.988888889,2411046.708,5.504672848,5195.258557,0.171654692
Anchorage Intl Ap,AK,USA,61.183,-150,2.410158904,2.444043836,2.961621005,3.187442922,0.440639269,3446.054945,3790.173913,1496.076923,903.0888889,3431.483516,4597.434783,1242.527473,486.4111111,3.164194139,14.09592391,2.10242674,-7.719583333,3.327884615,3.837228261,3.093223443,2.517222222,14.02197802,13.13043478,8.901098901,6.288888889,2286020.263,5.219224344,5317.581782,0.180991306
Anchorage Merrill Field,AK,USA,61.217,-149.85,1.902079452,2.296142466,4.499109589,1.7468379,0.345319635,2113.153846,3388.978261,1560.472527,535.2555556,2896.175824,4570.684783,1288.978022,408.2222222,3.305357143,15.24900362,3.398076923,-4.109861111,2.283974359,1.78423913,1.63956044,1.295,9.747252747,13.45652174,5.802197802,4.133333333,1723282.843,3.934435714,4484.98892,0.239738417
Aniak Airport,AK,USA,61.583,-159.533,3.188123288,2.553016438,0.92369863,2.407031963,0.378082192,4670.934066,3897.184783,2690.197802,1502.9,3888.67033,4422.673913,1413.296703,472.0666667,-0.476923077,11.9272192,-0.173809524,-7.787638889,2.768498168,2.022237319,2.411996337,2.460555556,10.86813187,12.27173913,8.032967033,5.144444444,2716724.84,6.202568127,4913.99765,0.152446901
Annette Island Ap,AK,USA,55.05,-131.567,2.155945205,2.539175342,7.93413242,4.06696347,0.470890411,2914.648352,3590.043478,1133.648352,980.4555556,3374.384615,4595.826087,1453.483516,718.3,6.616346154,13.29501812,8.418910256,3.397731481,4.16510989,3.142300725,4.426282051,4.601990741,13.14285714,15.01086957,9.659340659,7.433333333,2247596.465,5.13149878,5239.932215,0.184066276
Anvik,AK,USA,62.65,-160.183,3.661621918,2.572273973,0.739851598,2.413116438,0.372031963,5117.395604,5747.423913,2748.164835,1021.911111,3732.21978,4854.01087,1372.131868,309.0555556,0.65521978,11.73899457,0.092307692,-9.755046296,2.559020147,1.936231884,2.066437729,3.133703704,11.08791209,13.90217391,7.153846154,3.566666667,3268752.471,7.462905185,4882.704522,0.126869941
Barrow W Post-w Rogers Arpt [nsa - Arm],AK,USA,71.32,-156.62,1.847958904,1.954638356,-11.81682648,5.444372146,0.437671233,3770.395604,2994.836957,335.6703297,281.4222222,3228.956044,3896.01087,592.1978022,81.24444444,-16.35998168,2.86576087,-10.1257326,-24.09550926,5.117948718,5.41240942,5.973305861,5.342777778,14.78021978,18.89130435,6.186813187,2.088888889,718931.3891,1.641395866,3192.851819,0.573149576
Bethel Airport,AK,USA,60.783,-161.833,2.364720548,2.384515068,0.008618721,6.002842466,0.488356164,3961.461538,2474.130435,1530.065934,1508.6,3700.142857,3998.630435,1255.813187,572.0222222,-1.624130037,12.06951993,-0.195787546,-10.46782407,6.069322344,4.970018116,5.882326007,7.191203704,14.78021978,16.27173913,8.56043956,7.3,1819073.466,4.153135768,5583.559507,0.227202921
Bettles Field,AK,USA,66.917,-151.517,3.16810411,2.460328767,-4.200947489,3.076392694,0.506392694,5357.703297,5026.576087,1505.32967,770.8555556,3817.538462,4781.423913,1004.340659,214.8666667,-3.43543956,13.91997283,-6.392811355,-21.33648148,3.094322344,3.005027174,3.339239927,2.906157407,15.38461538,19.60869565,9.10989011,4.477777778,2612399.195,5.964381725,5676.036561,0.158512405
Big Delta Allen Aaf,AK,USA,64,-145.717,3.109035616,2.479010959,-0.602020548,3.956563927,0.475799087,4108.461538,5393.836957,1738.142857,1183.6,3384.648352,4920.597826,1242.373626,345.3888889,0.271520147,15.36730072,-4.401923077,-13.98643519,3.811904762,3.132291667,3.571016484,5.382453704,12.18681319,17.14130435,9.857142857,6.5,2517181.753,5.746990303,5474.702151,0.164465828
Big River Lake,AK,USA,60.817,-152.3,2.428893151,2.415254795,3.125125571,2.857968037,0.366438356,2627.230769,4758.358696,1709.263736,601.7333333,3047.648352,4869.978261,1304.395604,416.6,1.927197802,13.20720109,1.364102564,-4.149907407,3.128617216,2.625860507,3.390018315,2.322314815,8.43956044,14.57608696,7.494505495,4.655555556,2346055.54,5.356291188,4658.000104,0.176368482
Birchwood,AK,USA,61.417,-149.517,3.632736986,2.763956164,3.950776256,1.427990868,0.415981735,5424.846154,4795.869565,2951.835165,1360.566667,4129.417582,4956.836957,1481.824176,468.8,4.397710623,13.41082428,2.874175824,-5.032037037,1.701785714,1.221648551,1.660485348,1.144907407,12.78021978,13.69565217,7.714285714,5.766666667,3304523.765,7.544574805,5467.752911,0.125518028
Chulitna,AK,USA,62.883,-149.833,1.232183562,1.722084932,2.036141553,2.716073059,0.274543379,1533.120879,1480.217391,1466.956044,450.6666667,2322.89011,2998.206522,1228.252747,328.5777778,0.551556777,12.01589674,1.147069597,-5.736805556,2.477747253,2.894882246,2.906776557,2.615231481,7.494505495,7.836956522,7.175824176,3.877777778,792089.5921,1.808423726,3225.430984,0.520307725
Cold Bay Arpt,AK,USA,55.2,-162.717,1.241890411,2.11100274,3.847317352,7.541621005,0.453881279,1768.956044,1237.652174,1157.395604,812.5333333,2910.681319,3387.684783,1431.571429,707.8222222,1.810897436,9.302762681,5.017811355,-0.805601852,7.996199634,6.764402174,7.591163004,7.924074074,12.47252747,13.2173913,10.05494505,7.888888889,866205.7904,1.977638791,4454.352826,0.475958704
Cordova,AK,USA,60.5,-145.5,1.887547945,2.092271233,4.345114155,2.130787671,0.274086758,2481.417582,2569.413043,1849.813187,649.1888889,2929.395604,3679.641304,1375.10989,371.5777778,4.55952381,11.44615036,3.005906593,-1.724537037,2.358287546,1.986730072,1.507371795,2.703148148,8.362637363,8.380434783,6.340659341,3.244444444,1633758.251,3.73004167,3545.389334,0.252785992
Deadhorse,AK,USA,70.2,-148.483,1.870684932,1.717364384,-9.505468037,5.29390411,0.255936073,3027.494505,3590.826087,468.9120879,380.9888889,2503.538462,3784.076087,456.0659341,104.4666667,-14.07605311,5.312817029,-5.007554945,-24.70226852,6.254212454,4.965353261,4.675869963,5.3525,8.923076923,11.35869565,2.252747253,2.011111111,747698.6675,1.707074583,2258.065249,0.551061436
Dillingham (amos),AK,USA,59.05,-158.517,2.001890411,2.186983562,2.397340183,3.681609589,0.291438356,3338.175824,2469.163043,1573.78022,628.2111111,3455.384615,3632.402174,1260.307692,388.2222222,0.840430403,11.50289855,0.519322344,-3.411296296,4.008608059,2.995018116,3.216483516,4.567824074,9.934065934,9.739130435,5.461538462,2.844444444,1823779.602,4.163880371,4090.900288,0.226570114
Dutch Harbor,AK,USA,53.9,-166.55,0.900424658,1.833443836,4.691860731,5.024452055,0.205707763,787.021978,1873.380435,540.7362637,394.2,2222.406593,3371.728261,1177.186813,551.6111111,2.356868132,9.444157609,5.790705128,1.146388889,5.413278388,3.68115942,5.513827839,5.572638889,5.10989011,6.597826087,4.813186813,3.244444444,837929.4563,1.91308095,2870.789407,0.491873024
Emmonak,AK,USA,62.783,-164.5,2.585945205,2.172863014,0.320479452,4.683618721,0.314611872,3467.802198,3366.619565,2400.065934,1112.988889,3149.494505,3863.771739,1304.626374,358.9333333,-0.805311355,11.13768116,1.113003663,-10.40162037,4.900732601,4.34375,4.64459707,4.909953704,8.967032967,9.75,6.725274725,4.8,2164248.732,4.941207151,4077.357203,0.19108414
Fairbanks Eielson A,AK,USA,64.65,-147.1,2.315134247,2.329320548,-0.087248858,2.230114155,0.450913242,3124.593407,4121.130435,1539.956044,460.0666667,3244.131868,4650.847826,1129.153846,270.6111111,-0.728663004,14.68836051,-0.807967033,-13.81300926,2.728021978,2.482472826,2.096703297,1.632685185,12.82417582,16.98913043,8.230769231,5.233333333,1949001.099,4.449774198,5282.617607,0.212114132
Fairbanks Intl Arpt,AK,USA,64.817,-147.85,3.129030137,2.590490411,-1.435,2.463732877,0.50890411,5179.945055,4831.086957,1711.89011,783.1,3992.846154,4888.75,1156.912088,301.5111111,0.337728938,15.68555254,-4.648031136,-17.51157407,3.432234432,3.076902174,1.878021978,1.479583333,15.1978022,18.66304348,9.274725275,5.711111111,2680437.639,6.119720638,5866.989605,0.15451849
Fort Yukon,AK,USA,66.567,-145.267,3.918027397,2.564668493,-4.477317352,2.407031963,0.433561644,5358.472527,7514.195652,2214.153846,551.8888889,3630.879121,5473.402174,976.6813187,147.3666667,-2.979532967,13.28070652,-4.763827839,-23.90212963,2.70764652,2.586367754,2.673809524,1.680231481,14.26373626,18.31521739,5.912087912,3.088888889,3446731.072,7.869249022,5336.196365,0.120378298
Gambell,AK,USA,63.783,-171.75,1.948460274,1.860054795,-1.976015982,8.67663242,0.292808219,3199.098901,2549.206522,1618.868132,424.7333333,2841.582418,3320.684783,1072.648352,191.4555556,-5.256456044,6.297961957,1.160302198,-10.31708333,7.869322344,5.698596014,9.730677656,11.5850463,8.978021978,9.52173913,6.736263736,2.877777778,1646536.552,3.759215872,3683.592975,0.250836989
Gulkana Intermediate Field,AK,USA,62.15,-145.45,2.806931507,2.553506849,-1.890787671,2.47956621,0.481278539,5010.164835,3471.065217,1776.450549,973.4444444,3940.769231,4422.152174,1362.824176,472.9444444,-0.167261905,12.17368659,-2.92706044,-16.98722222,3.308379121,3.297282609,2.040430403,1.282037037,13.67032967,15.86956522,9.769230769,6.922222222,2436688.651,5.563216098,5598.129567,0.169868766
Gustavus,AK,USA,58.417,-135.7,2.937169863,2.606923288,4.783310502,1.977077626,0.336643836,4824.395604,2592.467391,2998.010989,1352.455556,4151.087912,4001.315217,1668.087912,598.4555556,4.897069597,11.25711051,4.383424908,-1.484027778,1.930265568,2.117164855,2.113415751,1.768101852,11.38461538,8.891304348,7.142857143,4.944444444,2571876.631,5.871864454,4595.592118,0.160968969
Hayes River,AK,USA,61.983,-152.083,2.109243836,2.20189863,2.672488584,1.404634703,0.338013699,2569.472527,3581.76087,1679.054945,597.0666667,3034.318681,4224.358696,1191.901099,338.5111111,0.804990842,13.20946558,1.401602564,-4.887361111,1.789194139,1.832653986,1.441254579,0.558240741,10.12087912,12.61956522,5.758241758,3.944444444,1834161.762,4.187583932,4278.232601,0.225299416
Healy River Airport,AK,USA,63.883,-149.017,1.620150685,1.946531507,1.945821918,2.793721461,0.364954338,2608.395604,1980.891304,1310.714286,583.0444444,2939.978022,3418.130435,1099.472527,315.8444444,0.254441392,12.85471014,1.108287546,-6.626342593,3.141987179,3.034827899,1.680586081,3.355092593,11.8021978,10.95652174,7.549450549,4.755555556,1109018.946,2.532006726,4282.842175,0.371960019
Homer Arpt,AK,USA,59.65,-151.483,2.533057534,2.379328767,3.776575342,3.560696347,0.368378995,2868.252747,3935.771739,2103.714286,1222.511111,3221.021978,4431.532609,1334.758242,513.0888889,3.26456044,12.18297101,4.083974359,-4.563703704,3.791346154,3.286096014,3.420604396,3.794259259,9.923076923,12.55434783,7.43956044,5.466666667,2187313.819,4.993867166,4899.505608,0.189102267
Hoonah,AK,USA,58.083,-135.45,2.646460274,2.60209589,5.015079909,2.488287671,0.327625571,4140.835165,3016.826087,2156.846154,1281.344444,3936.406593,4409.793478,1427.637363,621.5111111,4.646657509,12.70330616,4.35764652,-1.748425926,2.610393773,2.023777174,2.100228938,3.262083333,10.65934066,10.55434783,5.824175824,4.433333333,2476816.444,5.654832065,4611.652645,0.167108966
Hooper Bay,AK,USA,61.517,-166.15,2.880863014,2.330687671,0.193230594,6.74630137,0.361757991,4527.241758,3179.956522,2712.142857,1113.055556,3577.637363,3917.478261,1423.538462,390.9555556,-1.63768315,8.505434783,1.74047619,-8.018240741,6.193727106,6.858559783,7.022298535,6.995787037,12.37362637,10.4673913,7.813186813,4.1,2370551.949,5.412219062,4700.595509,0.174557367
Huslia,AK,USA,65.7,-156.383,3.215673973,2.280019178,-2.132694064,2.759223744,0.371689498,4908.747253,5097.945652,1995.791209,848.8555556,3489.098901,4424.141304,983.0879121,202.4222222,-0.951373626,11.65566123,-3.499954212,-16.0749537,3.066071429,2.569384058,2.676923077,2.759814815,13.16483516,13.79347826,5.373626374,3.333333333,2532882.204,5.782836083,4669.115784,0.163433478
Hydaburg Seaplane,AK,USA,55.2,-132.833,2.510413699,2.575739726,8.844509132,3.338059361,0.328196347,3832.285714,2603.652174,2260.802198,1358.822222,3963.010989,3854.086957,1743.197802,736.7111111,5.459478022,20.82735507,6.604212454,2.393796296,3.462820513,2.938315217,3.609844322,3.388935185,10.3956044,8.782608696,7.516483516,4.855555556,2412797.683,5.508670508,4759.109083,0.171520002
Iliamna Arpt,AK,USA,59.75,-154.917,3.018463014,2.593317808,3.501872146,4.794063927,0.339041096,4456.769231,3404.521739,2367.538462,1861.233333,4035.032967,4194.206522,1524.076923,609.0555556,1.95970696,12.28568841,1.334340659,-1.683333333,4.471611722,4.299773551,4.953113553,5.524675926,10.73626374,11.22826087,6.142857143,4.455555556,2773918.585,6.333147454,5034.170774,0.149326909
Juneau Int'l Arpt,AK,USA,58.35,-134.583,2.148175342,2.326021918,5.480707763,3.411940639,0.268721461,3085.692308,2912.173913,1580.527473,1017.088889,3457.736264,3995.869565,1281.89011,556.3555556,5.734752747,13.09162138,5.606684982,-2.619583333,3.737042125,3.263813406,3.661675824,3.025972222,8.241758242,8.532608696,4.945054945,4.1,2084542.405,4.759229235,3769.439496,0.198343496
Kake Seaplane Base,AK,USA,56.967,-133.95,2.364608219,2.493024658,5.772431507,2.977237443,0.319520548,2508.615385,4157.434783,1953.131868,828.6555556,3187.901099,4722.641304,1497.494505,545.5555556,4.843910256,12.80144928,5.757188645,-0.38962963,2.807875458,2.941394928,3.23452381,2.964027778,9.56043956,11,6.252747253,3.866666667,2432474.824,5.553595489,4655.231443,0.170138043
Kenai Municipal Ap,AK,USA,60.583,-151.233,3.275764384,2.620178082,3.323835616,3.553778539,0.360502283,4704.351648,4368.782609,3255.21978,771.1666667,3753.263736,4704.163043,1608.758242,395.9777778,2.663690476,11.63668478,0.384615385,-1.493009259,4.039880952,3.453713768,3.183424908,3.583194444,10.75824176,13.65217391,6.659340659,3.522222222,3096790.085,7.070296997,4914.543145,0.13386002
Ketchikan Intl Ap,AK,USA,55.367,-131.717,2.112273973,2.47329589,6.282671233,3.570673516,0.294520548,3537.516484,2651.76087,1155,1111.1,3892.263736,4030.054348,1314.758242,646.1,4.170924908,14.65371377,6.942582418,-0.722916667,2.948626374,3.562318841,3.952518315,3.87087963,10.59340659,8.706521739,4.967032967,4.033333333,2125241.906,4.85215047,4250.688518,0.19457785
King Salmon Arpt,AK,USA,58.683,-156.65,1.986345205,2.318589041,2.048972603,4.691803653,0.456164384,2958.692308,2445.663043,1437.89011,1110.288889,3294.967033,4011.76087,1345.978022,609.7444444,0.433791209,11.83396739,2.068315018,-6.321296296,5.188186813,4.497463768,4.445741758,4.697083333,13.04395604,14.18478261,9.901098901,6.7,1599481.541,3.651784341,5384.674551,0.258250733
Kodiak Airport,AK,USA,57.75,-152.5,2.399260274,2.488356164,5.42119863,4.833447489,0.424200913,3066.615385,3303.934783,2045.252747,1184.311111,3431.571429,4355.880435,1529.153846,623.1444444,4.481227106,11.68165761,5.283928571,0.176435185,5.355128205,3.49384058,5.129578755,5.435648148,12.16483516,11.07608696,10.0989011,7.455555556,2174588.028,4.964812849,5263.427674,0.190213092
Kotzebue Ralph Wein Memorial,AK,USA,66.883,-162.6,2.932509589,2.316172603,-4.831175799,5.436050228,0.450913242,4834.813187,4444.902174,1619.384615,823.3666667,3750.131868,4340.054348,935.4285714,219.2444444,-9.469368132,10.59316123,-3.464468864,-17.35791667,5.100915751,5.613586957,4.921062271,6.183472222,14.08791209,17.61956522,7.164835165,4.388888889,2297620.273,5.245708385,4887.818205,0.18007136
Lake Hood Seaplane,AK,USA,61.183,-149.967,3.830687671,2.888865753,4.591826484,2.307465753,0.388926941,5290.934066,5770.858696,3491.384615,756.5666667,4031.10989,5449.891304,1689.604396,360.6777778,3.634203297,14.14719203,3.610531136,-3.154814815,2.274313187,2.619610507,2.344139194,2.01337963,11.42857143,15.15217391,7.769230769,2.955555556,3863217.076,8.820130311,5389.049494,0.107509174
Mcgrath Arpt,AK,USA,62.95,-155.6,2.652567123,2.505947945,-2.754748858,2.432465753,0.503767123,4334.648352,3903.141304,1439.373626,929.5777778,3848.846154,4546.619565,1196.483516,413.9666667,-2.016575092,13.98355978,-4.54702381,-18.85324074,2.855677656,2.53138587,2.771520147,1.591574074,15.15384615,17.86956522,9.21978022,6.122222222,2223787.097,5.077139491,5663.982356,0.186037748
Mekoryuk,AK,USA,60.367,-166.267,1.872493151,1.971556164,0.906849315,6.705399543,0.294178082,2157.912088,2622.315217,1485.879121,1229.133333,2695.21978,3531.565217,1194.417582,452.8555556,-0.453388278,7.437998188,1.976282051,-5.466203704,6.28470696,5.755661232,6.970009158,7.92337963,6.78021978,9.543478261,6.516483516,5.433333333,1484157.716,3.388487935,3875.388147,0.278178926
Middleton Island Aut,AK,USA,59.467,-146.317,2.916827397,2.604372603,5.714988584,6.010319635,0.359018265,4743.175824,3736.804348,2385.208791,801.9222222,4163.373626,4355.945652,1470.362637,413.1,2.232875458,12.00797101,6.979258242,1.592546296,5.901877289,4.041032609,6.367673993,7.848703704,11.97802198,12.18478261,6.395604396,3.911111111,2876993.516,6.568478347,5098.800438,0.144014103
Minchumina,AK,USA,63.883,-152.283,3.779306849,2.748479452,-0.918013699,1.2368379,0.431392694,4484.43956,7143.913043,2523.703297,938.5111111,3782.582418,5570.456522,1287.989011,325.4555556,2.538141026,14.51902174,-2.750549451,-18.35361111,2.217216117,1.216893116,0.957783883,0.563888889,13.14285714,17,5.868131868,5.388888889,3606099.715,8.233104371,5520.417333,0.115105537
Nenana Municipal Ap,AK,USA,64.55,-149.1,3.204682192,2.485805479,-0.893082192,2.548744292,0.427511416,5033.758242,4899.815217,2089.340659,785.8222222,3470.21978,5009.152174,1136.043956,303.4111111,0.072344322,14.11358696,-4.127472527,-13.9512963,2.846474359,2.208288043,2.585714286,2.588611111,11.12087912,17.77173913,6.758241758,5.366666667,2687532.586,6.135919145,5341.525333,0.154101478
Nome Municipal Arpt,AK,USA,64.517,-165.45,2.82770411,2.307339726,-1.822180365,4.417431507,0.433675799,4849.043956,3742.271739,1618.406593,1103.166667,3644.164835,4188.456522,1042.263736,337.5555556,-4.925320513,10.67341486,-1.624038462,-11.69,3.829578755,4.293297101,4.738690476,4.868703704,12.58241758,15.07608696,8.175824176,5.811111111,2240215.675,5.11464766,4720.762646,0.184655515
Northway Airport,AK,USA,62.967,-141.933,2.166536986,2.293950685,-4.49359589,1.91706621,0.347146119,3350.10989,3366.684783,1254.692308,689.0444444,3409.208791,4272.445652,1132.67033,343.5111111,-2.942399267,13.32028986,-6.473031136,-22.33694444,2.261858974,2.225498188,1.883928571,1.309583333,10.36263736,12.06521739,5.967032967,4.944444444,1880054.123,4.292361011,4377.283294,0.2198274
Palmer Municipal,AK,USA,61.6,-149.083,2.321975342,2.337564384,5.260034247,3.295456621,0.325228311,3219.098901,3641.326087,2000.384615,417.1777778,3300.461538,4361.945652,1344.967033,324.2,4.038598901,14.24782609,4.108150183,-1.462175926,3.504532967,2.940081522,3.07797619,3.707083333,10.38461538,11.88043478,6.087912088,2.855555556,2098127.085,4.790244486,4274.190536,0.197080196
Petersburg,AK,USA,56.8,-132.95,1.835649315,2.295539726,5.508493151,1.749646119,0.290639269,3274.89011,2570.206522,732.7582418,765.0777778,3584.373626,3883.891304,1158.032967,544.3888889,4.974313187,12.79895833,5.280815018,-1.105138889,2.028891941,2.061956522,1.516804029,1.405601852,9.978021978,9.608695652,4.626373626,3.7,1892069.06,4.319792373,4041.740767,0.218427171
Point Hope (awos),AK,USA,68.35,-166.8,2.667309589,2.069747945,-4.402796804,7.013652968,0.361986301,5044.175824,3678.782609,1584.813187,354.3222222,3280.549451,3916.891304,932.2637363,130.7,-8.356684982,4.594610507,-1.618315018,-12.48013889,5.957188645,6.61557971,8.395192308,7.180740741,12.38461538,13.73913043,6.186813187,2.422222222,2102023.485,4.799140377,4438.711246,0.196721429
Port Heiden,AK,USA,56.95,-158.617,1.662720548,2.187578082,3.168287671,5.96760274,0.307191781,2605.802198,1868.380435,1131.472527,1054.555556,3402.21978,3461.880435,1239.175824,640.0666667,0.474358974,9.545471014,4.194139194,-1.625092593,5.542948718,5.196105072,6.819642857,6.401435185,9.846153846,10.80434783,4.395604396,4.455555556,1468865.974,3.353575283,4330.903201,0.281083125
Saint Mary`s (awos),AK,USA,62.067,-163.3,2.375772603,2.086580822,0.536997717,5.388652968,0.305251142,3857.56044,2565.097826,1681.197802,1412.677778,3401.428571,3400.836957,1074.901099,459.7666667,-1.653983516,9.753306159,2.692307692,-8.841759259,5.290430403,5.15307971,4.89720696,6.291342593,10.78021978,7.815217391,5.362637363,5.4,1921399.887,4.386757732,3941.958258,0.215104955
Sand Point,AK,USA,55.317,-160.517,2.244408219,2.27189863,4.420650685,5.071997717,0.308789954,2095.604396,2946.358696,2729.32967,1211.944444,2756.10989,3838.521739,1797.296703,685.9888889,2.339056777,10.61019022,4.286813187,0.392685185,4.977472527,4.120018116,5.846199634,5.419953704,6.956043956,8.793478261,8.428571429,5.511111111,2012166.735,4.593987979,4155.16576,0.20545325
Savoonga,AK,USA,63.683,-170.5,2.303613699,1.947884932,-1.603321918,5.889223744,0.296004566,2677.857143,3431.152174,2480.32967,619.5333333,2642.076923,3731.902174,1196.769231,203.4777778,-5.40467033,6.923324275,1.445192308,-9.586157407,5.305723443,4.798596014,6.881639194,6.663703704,7.43956044,9.554347826,8.10989011,3.322222222,1847691.034,4.218472681,3739.095765,0.22363953
Selawik,AK,USA,66.6,-160,3.695276712,2.41569863,-3.969200913,4.31630137,0.405022831,5523.626374,5807.043478,2765.076923,670.2444444,3671.164835,4655.228261,1127.791209,186.1666667,-4.271474359,10.1459692,-3.344734432,-18.77699074,4.554716117,4.135597826,4.178113553,4.454074074,13.10989011,14.86956522,6.956043956,3.944444444,3056581.641,6.978496896,4913.977226,0.135607743
Seward,AK,USA,60.117,-149.45,2.603635616,2.350561644,4.472808219,4.287385845,0.298744292,2638.758242,4119.891304,2855.098901,792.8444444,3066.417582,4350.847826,1532.472527,435.3111111,3.274496337,12.53496377,2.89010989,-0.898842593,4.418452381,4.043070652,4.783836996,3.95462963,8.373626374,10.82608696,5.989010989,3.488888889,2361138.087,5.390726226,4073.006603,0.175233392
Shemya Afb,AK,USA,52.717,174.117,0.649679452,1.590871233,3.320388128,7.747614155,0.194406393,882.5384615,385.7282609,837.4725275,501.3888889,2321.846154,2101.086957,1299.582418,642.4222222,1.085989011,7.324094203,4.783745421,0.050324074,8.025274725,6.340987319,8.51007326,8.230509259,5.835164835,2.576086957,6.010989011,4.311111111,-94487.8283,-0.215725635,247.1048707,-4.350455125
Shishmaref (awos),AK,USA,66.267,-166.05,3.108863014,2.237194521,-3.717146119,5.911495434,0.364497717,4927.659341,4615.869565,2241.945055,641.3111111,3406.912088,4229.630435,1092.637363,200.1222222,-7.131043956,7.003351449,-0.149313187,-14.88115741,5.465842491,5.54986413,7.114697802,5.593287037,10.89010989,12.65217391,7.417582418,4.044444444,2662806.518,6.079466937,4444.979241,0.155502933
Sitka Japonski Ap,AK,USA,57.05,-135.367,2.626156164,2.533175342,6.181712329,3.382442922,0.336415525,3910.483516,2793.804348,2299.516484,1515.633333,3757.923077,4193.51087,1501.637363,668.7333333,5.001694139,12.26367754,7.447115385,-0.038981481,3.441712454,2.641123188,3.68525641,3.818472222,10.59340659,11.52173913,5.637362637,4.555555556,2342611.96,5.348429131,4921.113389,0.176633008
Skagway Airport,AK,USA,59.467,-135.3,2.375761644,2.453808219,5.655639269,4.545399543,0.304680365,3964.054945,3015.48913,1695.978022,829.6111111,3915.065934,4186.369565,1223.725275,476.2666667,6.502884615,13.46313406,5.118818681,-2.569074074,4.383470696,4.154846014,4.718131868,4.991527778,10.84615385,10.18478261,4.956043956,3.266666667,2278169.703,5.201300692,4507.30201,0.181590215
Sleetmute,AK,USA,61.717,-157.15,3.160438356,2.555282192,1.178652968,1.219315068,0.367694064,4849.428571,4223.26087,2539.582418,1029.111111,4062.549451,4415.934783,1377.89011,348.1333333,4.662362637,12.10507246,-0.522985348,-11.78189815,1.593910256,1.19995471,1.020879121,1.075925926,12.48351648,12.08695652,6.549450549,4.188888889,2811072.435,6.417973595,4800.747817,0.147361495
Soldotna,AK,USA,60.467,-151.033,4.166383562,2.916490411,3.172431507,1.639075342,0.44086758,5325.956044,6173.98913,3687.505495,1472.2,4072.131868,5326.847826,1718.934066,527.3555556,2.86959707,12.35932971,0.341300366,-3.012407407,1.997710623,1.785597826,1.411492674,1.378101852,13.13186813,14.97826087,8.505494505,5.722222222,3911718.002,8.930863018,5818.573677,0.106195168
St Paul Island Arpt,AK,USA,57.167,-170.217,0.984775342,2.004986301,2.3168379,7.198002283,0.430365297,1635.989011,854.2065217,920.5934066,535.6333333,2974.131868,3167.565217,1269.450549,602.6444444,-0.283791209,7.56888587,3.990201465,-2.086111111,7.631547619,5.615398551,7.269184982,8.399166667,12.16483516,12.29347826,9.923076923,6.988888889,685006.0009,1.563940641,3760.423266,0.601535387
Talkeetna State Arpt,AK,USA,62.317,-150.1,2.798923288,2.505460274,1.798047945,2.35880137,0.456164384,4145.241758,3816.478261,1936.076923,1301.011111,3787.945055,4411.130435,1327.516484,479.5777778,2.693956044,13.93908514,0.418406593,-10.10819444,2.577106227,2.364583333,2.044917582,2.478981481,13.43956044,14.06521739,9.846153846,6.477777778,2369924.63,5.410786827,5277.096378,0.174617903
Tanana Ralph M Calhoun Mem Ap,AK,USA,65.167,-152.1,2.197065753,2.108753425,-2.082648402,2.577716895,0.362442922,3158.428571,3429.891304,1605.505495,587.4,3040.307692,4085.184783,1069.285714,220.9444444,-2.422802198,12.85253623,-3.388553114,-15.71615741,2.982371795,2.798641304,2.015384615,2.545092593,11.05494505,13.86956522,6.417582418,3.444444444,1654922.14,3.77836105,4390.287529,0.249596672
Togiac Village Awos,AK,USA,59.05,-160.4,2.856473973,2.413410959,2.690422374,4.934543379,0.32739726,4906.417582,3202.173913,2493.802198,828.8111111,3781.923077,4027.173913,1447.846154,383.1777778,-0.790247253,11.91567029,2.222619048,-2.716898148,5.043315018,4.81553442,4.681364469,5.267962963,10.59340659,10.68478261,6.791208791,3.366666667,2693719.543,6.150044619,4445.270895,0.15372987
Unalakleet Field,AK,USA,63.883,-160.8,2.895558904,2.245010959,-0.353253425,5.54076484,0.357534247,3647.406593,4335.195652,2520.483516,1075.144444,3196.186813,4266.467391,1185.659341,312.9555556,-0.417399267,9.616847826,-0.100686813,-10.75060185,5.366620879,4.410416667,5.851465201,6.628148148,10.56043956,11.59782609,7.197802198,4.988888889,2323529.938,5.304862873,4514.921812,0.178064908
Valdez Pioneer Fiel,AK,USA,61.133,-146.267,1.946915068,2.144641096,4.411392694,1.385034247,0.301255708,2355.604396,3525.130435,1597,295.8333333,2838.406593,4160.793478,1282.593407,277.6666667,3.405723443,11.78097826,3.671474359,-1.300601852,1.642124542,1.601856884,1.454487179,0.851527778,8.802197802,11.17391304,5.945054945,2.988888889,1843222.471,4.208270482,3951.094283,0.224186181
Valdez Wso,AK,USA,61.133,-146.35,1.840950685,2.044460274,4.075799087,2.756426941,0.263356164,2852.945055,2492.076087,1346.802198,672.2111111,2977.252747,3740.847826,1110.912088,333.8555556,3.749862637,12.40276268,3.89775641,-3.875740741,2.386584249,2.416077899,3.423443223,2.844212963,8.208791209,8.630434783,5.032967033,3.422222222,1499799.018,3.424198672,3427.068742,0.275270311
Whittier,AK,USA,60.767,-148.683,2.18749589,2.197693151,4.084052511,4.012796804,0.282305936,3517.505495,2723.934783,1778.989011,731.7,3363.714286,3745.858696,1275.527473,392.9777778,2.97293956,11.90656703,2.994642857,-1.634907407,4.253571429,3.174728261,4.597619048,4.087453704,9.758241758,8.304347826,5.571428571,3.488888889,2045962.169,4.671146505,3720.619311,0.202063325
Wrangell,AK,USA,56.483,-132.367,2.544761644,2.553679452,6.151621005,2.671906393,0.316780822,4430.241758,2822.858696,1773.274725,1162.388889,4202.934066,3914.228261,1456.428571,633.1333333,4.719505495,13.546875,6.588919414,-0.325740741,3.522847985,2.156023551,2.219139194,2.830324074,11.38461538,8.945652174,5.615384615,4.5,2609292.35,5.95728847,4508.994492,0.158673117
Yakutat State Arpt,AK,USA,59.517,-139.633,1.748745205,2.188482192,4.648253425,2.84336758,0.396803653,2484.384615,2434.902174,1285.978022,790.8666667,3082.725275,3871.576087,1257.758242,529.1888889,3.576053114,11.9147192,5.069322344,-2.059537037,2.458791209,2.894021739,2.968772894,3.089861111,9.186813187,12.91304348,9.43956044,6.588888889,1485637.483,3.391866399,4618.550424,0.277932856
Anniston Metropolitan Ap,AL,USA,33.583,-85.85,3.310676712,4.004778082,16.68152968,2.428630137,0.380365297,3280.153846,3572.815217,4083.087912,2329.366667,4439.494505,5553.706522,3871.934066,2160.7,17.88905678,24.4125,16.73434066,7.717083333,2.566208791,2.234737319,2.195833333,2.753796296,9.131868132,11.7826087,9.769230769,5.866666667,4616147.878,10.53915041,5828.094754,0.090142379
Auburn-opelika Apt,AL,USA,32.616,-85.433,4.648,4.732024658,16.24431507,2.688059361,0.434817352,5053.318681,5387.630435,4736.406593,3444.366667,5491.626374,6513.054348,4226.472527,2707.122222,15.94340659,23.79442935,17.38159341,7.884907407,3.010805861,1.970652174,2.802152015,3.013148148,10.8021978,12.93478261,10.25274725,7.811111111,6917382.296,15.79311026,6890.950515,0.060496231
Birmingham Municipal Ap,AL,USA,33.567,-86.75,4.156608219,4.473687671,16.97223744,2.942808219,0.472488584,4706.582418,4381.98913,4091.274725,3482.377778,5339.692308,5961.434783,3822.076923,2785.811111,17.39281136,25.91064312,17.33475275,7.259027778,3.345833333,2.401675725,3.109478022,2.956851852,11.72527473,12.77173913,10.64835165,10.31111111,5871836.519,13.40601945,6836.97145,0.071089645
Cairns Field Fort Rucker,AL,USA,31.267,-85.717,3.882646575,4.399942466,17.59237443,2.817739726,0.423287671,4040.67033,3638.315217,4097.472527,3798.555556,4952.78022,5687.945652,4005.571429,2971.977778,17.9043956,25.68460145,17.62449634,9.196203704,3.025595238,2.129438406,2.732600733,3.432222222,9.879120879,12.42391304,9.637362637,8.766666667,5505790.59,12.57029815,6572.526971,0.07574659
Dothan Municipal Ap,AL,USA,31.233,-85.433,4.418306849,4.614120548,18.66393836,3.306061644,0.424086758,4963.725275,3828.706522,4171.164835,4768.511111,5720.263736,5559.76087,3904.032967,3298.277778,20.04587912,26.14148551,20.10334249,8.401898148,3.800869963,2.300362319,3.445970696,3.731712963,11.24175824,11.44565217,9.285714286,8.822222222,6337710.188,14.46965796,6892.705314,0.065938009
Gadsen Muni (awos),AL,USA,33.967,-86.083,3.991043836,4.252876712,15.60103881,1.958515982,0.402283105,4679.472527,4017.402174,3656.945055,3650.177778,5241.681319,5559.48913,3599.307692,2625.522222,15.95924908,24.38129529,16.32857143,5.725694444,2.12985348,1.691893116,1.951373626,2.089305556,10.59340659,11.48913043,9.285714286,7.311111111,5583649.523,12.74805827,6412.1142,0.074702593
Huntsville Intl Jones Field,AL,USA,34.65,-86.783,4.211424658,4.374783562,15.53921233,3.720559361,0.488242009,4439.164835,5040.728261,3949.472527,3445.077778,5112.923077,6157.945652,3640.263736,2596.944444,15.97522894,25.31879529,16.22925824,4.600462963,4.101923077,2.961865942,3.755952381,4.11962963,12.97802198,14.08695652,10.73626374,9.144444444,5963198.369,13.61460815,7007.611887,0.070017522
Maxwell Afb,AL,USA,32.383,-86.35,3.968783562,4.441843836,17.77119863,2.927260274,0.426940639,4576.516484,3630.195652,4107.714286,3604.033333,5372.494505,5641.619565,4030.692308,2739.488889,17.85544872,27.02871377,17.87252747,8.346157407,3.521291209,1.794655797,2.99047619,3.456111111,11.17582418,12.09782609,9.89010989,7.888888889,5624975.351,12.84240948,6594.61455,0.074163058
Mobile Downtown Ap,AL,USA,30.633,-88.067,4.515,4.724142466,19.34777397,3.455296804,0.433105023,4632.56044,5038.554348,4955.43956,3465.777778,5409.054945,6283.26087,4438.120879,2779.544444,19.12211538,26.68994565,19.91121795,11.75041667,3.592490842,3.385144928,3.274542125,3.613796296,10.68131868,12.84782609,10.61538462,7.488888889,6606160.272,15.0825577,6923.692964,0.063299448
Mobile Regional Ap,AL,USA,30.683,-88.25,4.180449315,4.492471233,19.24656393,3.643481735,0.450228311,4753,4246.717391,4348.010989,3410.822222,5396.494505,5717.619565,3960.846154,2913.477778,19.8614011,26.60570652,19.84491758,10.74583333,4.104532967,2.770833333,3.700732601,4.058148148,12.76923077,12.34782609,9,9.188888889,6148535.569,14.03775244,6775.754134,0.067934843
Montgomery Dannelly Field,AL,USA,32.3,-86.4,4.093967123,4.626005479,17.98796804,2.751769406,0.485616438,4557.252747,4045.032609,4229.384615,3584.122222,5486.065934,5952.804348,4137.791209,2945.144444,18.8896978,26.43718297,18.06817766,8.585324074,3.00970696,2.087137681,2.56959707,3.388657407,12.27472527,13.18478261,11.45054945,9.8,5899770.264,13.46979512,7062.070634,0.07076008
Muscle Shoals Regional Ap,AL,USA,34.75,-87.6,3.20589589,3.838553425,16.54549087,2.844497717,0.356164384,3965.241758,3996.086957,2774.472527,2102.2,4866.384615,5460.728261,3039.472527,1991.688889,16.79871795,24.23500906,17.84290293,7.326990741,3.625595238,1.960009058,2.645741758,3.19662037,9.681318681,11.45652174,7.406593407,5.677777778,4614666.21,10.5357676,5699.793521,0.090169333
Troy Af,AL,USA,31.867,-86.017,3.9518,4.404745205,18.09028539,2.150947489,0.402511416,5204.78022,4177.326087,4077.483516,2371.188889,5673.758242,5759.173913,3870.263736,2326.466667,18.69281136,25.49696558,19.2032967,9.016111111,2.3503663,1.727853261,1.948260073,2.61412037,11.51648352,11.5,9.186813187,6.488888889,5874680.572,13.41251272,6449.236631,0.071051753
Tuscaloosa Municipal Ap,AL,USA,33.217,-87.617,3.575567123,4.103457534,17.25915525,2.481552511,0.376484018,3540.681319,4383.586957,3640.857143,2758.577778,4574.274725,5890.978261,3603.934066,2350.833333,18.00563187,25.33446558,18.6290293,7.083796296,2.758333333,2.225905797,2.440018315,2.535509259,9.087912088,12.05434783,8.538461538,6.5,5107657.049,11.66131746,5942.615378,0.081565565
Batesville (awos),AR,USA,35.733,-91.65,4.390838356,4.371509589,15.16840183,2.528184932,0.410844749,4682.978022,5245.576087,4579.450549,3079.8,5165.351648,6157.119565,3875.758242,2293.388889,14.0657967,24.78315217,16.16515568,5.635648148,3.092582418,1.90629529,2.391163004,2.763240741,10.46153846,12.57608696,9.714285714,6.733333333,6207899.638,14.17328685,6562.575797,0.067292707
Bentonville (awos),AR,USA,36.35,-94.217,4.590841096,4.348068493,13.89321918,3.016666667,0.417123288,4320.043956,6013.445652,4079.637363,3978.322222,4989.835165,6288.206522,3517,2604.533333,13.18511905,24.89261775,13.86332418,3.568657407,3.752335165,2.433061594,2.599267399,3.330138889,11.05494505,13.06521739,8.21978022,7.755555556,6283673.627,14.34628682,6611.259071,0.066493757
El Dorado Goodwin Field,AR,USA,33.217,-92.817,4.132309589,4.391219178,17.84023973,2.403481735,0.394520548,4448.186813,5145.217391,4115.164835,2840.755556,5195.428571,6230.869565,3755.505495,2389.111111,19.37619048,27.71535326,18.1481685,6.112361111,2.940842491,2.060144928,2.201602564,2.444722222,10.61538462,12.43478261,8.472527473,6.388888889,6104197.124,13.93652312,6411.224407,0.068417448
Fayetteville Drake Field,AR,USA,36,-94.167,4.230517808,4.210583562,15.32142694,2.910787671,0.389954338,4317.153846,5461.141304,3621.857143,3547.377778,4913.340659,6097.98913,3332.076923,2505.722222,15.01034799,25.5442029,16.85503663,3.827361111,2.847802198,2.455208333,2.936034799,3.451898148,10.08791209,12.40217391,7.736263736,7.255555556,5826213.482,13.30185726,6322.254318,0.071633192
Flippin (awos),AR,USA,36.3,-92.467,4.23589589,4.258452055,15.03114155,1.950388128,0.394063927,4529.813187,5619.271739,3528.747253,3286.666667,4992.824176,6314.695652,3318.956044,2411.233333,14.4503663,24.48881341,17.19949634,3.948796296,2.444734432,1.282699275,1.816849817,2.293009259,10.17582418,12.63043478,7.835164835,7.233333333,5965653.253,13.62021291,6364.890945,0.069982657
Fort Smith Regional Ap,AR,USA,35.333,-94.367,4.667879452,4.600693151,15.60972603,3.341552511,0.479223744,4909.857143,5958.478261,4258.21978,3570.011111,5391.373626,6503.184783,3843.659341,2673.022222,15.78447802,26.47078804,17.16698718,2.958842593,3.647298535,2.879981884,3.03768315,3.853148148,12.15384615,14.40217391,10.68131868,8.833333333,6667184.731,15.22188295,6862.582255,0.062728674
Harrison Faa Ap,AR,USA,36.267,-93.15,3.912027397,4.056158904,14.82568493,3.446038813,0.379908676,4763.285714,4735.880435,3171.32967,3001.544444,5097.263736,5797.73913,3117.769231,2217.088889,14.86602564,24.77418478,15.9831044,3.636064815,3.93021978,2.960960145,3.009340659,3.935925926,10.16483516,12.15217391,7.340659341,6.855555556,5460166.438,12.46613342,6122.565064,0.076366214
Jonesboro Muni,AR,USA,35.833,-90.65,4.071227397,4.246032877,14.84110731,3.564942922,0.401255708,3658.472527,5695.532609,3796.956044,3150.722222,4586.461538,6526.565217,3583.967033,2287.211111,15.54290293,25.61372283,17.42110806,0.698564815,4.445238095,2.631023551,3.367307692,3.871574074,9.56043956,13.25,9.263736264,6.477777778,5711401.067,13.03972846,6392.331311,0.073053819
Little Rock Adams Field,AR,USA,34.75,-92.233,4.281008219,4.485868493,16.56682648,3.17173516,0.485616438,4217.43956,5501.597826,4206.406593,3220.566667,5125.450549,6419.76087,3873.593407,2531.233333,16.54010989,26.95765399,17.45613553,5.283888889,3.565247253,2.612318841,2.651877289,3.912175926,12.08791209,14.10869565,11.56043956,8.933333333,6112681.063,13.95589284,6959.74923,0.068329262
Little Rock Afb,AR,USA,34.917,-92.15,3.584290411,4.172846575,16.06545662,2.8518379,0.438812785,3655.571429,4586.902174,3957.978022,2149.311111,4731.956044,6031.23913,3764.362637,2167.222222,15.78136447,26.23396739,16.36913919,5.856759259,3.39235348,1.653985507,2.677655678,3.741481481,11.32967033,13.48913043,10.31868132,7.033333333,5034581.52,11.49447836,6499.98644,0.082741594
Memorial Fld,AR,USA,34.467,-93.1,3.783871233,4.057057534,16.49211187,2.699006849,0.371917808,4025.747253,4840.934783,3007.967033,3285.322222,4709.318681,5928.413043,3202.78022,2393.455556,16.12925824,26.37980072,17.32710623,6.115648148,3.205815018,2.526086957,2.630540293,2.467361111,9.516483516,12.19565217,7.175824176,6.855555556,5375470.689,12.27276413,5962.548147,0.077551896
Pine Bluff Faa Ap,AR,USA,34.167,-91.933,4.023073973,4.268156164,16.78738584,3.0293379,0.378881279,4313.824176,5608.75,3721.186813,2458.122222,5034.087912,6380.021739,3534.296703,2124.355556,17.22783883,27.3807971,17.74935897,4.755046296,3.88282967,1.914039855,3.000412088,3.371296296,10.43956044,12.2826087,8.032967033,5.644444444,5897299.256,13.46415355,6214.178323,0.070780683
Rogers (awos),AR,USA,36.367,-94.1,5.005964384,4.584871233,14.30718037,3.443515982,0.446004566,4733.153846,6728.358696,4713.934066,3872.033333,5101.857143,6949.478261,3743.417582,2546.733333,12.28585165,25.85615942,15.14276557,3.87712963,4.112591575,2.958922101,3.185622711,3.565138889,10.69230769,13.81521739,9.824175824,8.544444444,7015723.939,16.01763456,6918.491357,0.059662489
Siloam Spring(awos),AR,USA,36.183,-94.483,4.703087671,4.401323288,14.90222603,3.591506849,0.4,4676.978022,6486.826087,3660.516484,4012.522222,4973.692308,6676.652174,3313.32967,2645.688889,13.95764652,25.53478261,15.09336081,4.981712963,4.558424908,2.894655797,2.805952381,4.163518519,10.59340659,12.75,7.505494505,7.6,6615681.522,15.10429571,6547.235804,0.063206373
Springdale Muni,AR,USA,36.183,-94.117,4.199747945,4.203213699,14.45062785,4.007968037,0.402054795,4280.406593,5461.978261,4498.516484,2572.488889,4786.252747,6082.217391,3770.813187,2176.844444,14.72445055,25.11567029,14.79624542,3.110509259,3.81529304,3.62821558,3.74290293,4.908333333,9.912087912,11.93478261,9.571428571,7.233333333,5842129.379,13.33819493,6402.036782,0.071441583
Stuttgart (awos),AR,USA,34.6,-91.567,4.564712329,4.559531507,17.10592466,3.740936073,0.428652968,4639.626374,5669.956522,4373.67033,3603.044444,5289.67033,6411.456522,3876.120879,2669.866667,16.75677656,26.31304348,18.74212454,6.608518519,4.254395604,3.005797101,3.512408425,4.249953704,11.24175824,12.35869565,9.274725275,8.344444444,6521087.538,14.88832771,6903.360085,0.064112007
Texarkana Webb Field,AR,USA,33.45,-94,4.276813699,4.364317808,18.22666667,3.240582192,0.392808219,4472.824176,5650.923913,4271.10989,2727.266667,5105.736264,6330.880435,3785.450549,2238.188889,18.40663919,27.00018116,19.32600733,8.192777778,3.959798535,2.52798913,2.858791209,3.66912037,10.25274725,13.0326087,8.615384615,5.833333333,6211978.256,14.18259876,6323.147258,0.067246869
Walnut Ridge (awos),AR,USA,36.133,-90.917,4.182150685,4.291972603,15.21124429,3.513618721,0.398744292,4232.593407,5787.891304,3546.10989,3179.3,4913.428571,6481.902174,3392.186813,2382.488889,15.19789377,25.32871377,16.27284799,3.99962963,3.781913919,2.924773551,3.396245421,4.007222222,10.07692308,12.65217391,8.450549451,7.144444444,5874548.782,13.41221183,6487.664547,0.071053717
Casa Granda (awos),AZ,USA,32.95,-111.767,7.139454795,5.653221918,21.95627854,2.513824201,0.476484018,7846.362637,8139.804348,6518.164835,6109.633333,6916.087912,7410.467391,4647.582418,3659.655556,21.82641941,32.66865942,21.66300366,11.70837963,2.702655678,2.76571558,2.605082418,2.003055556,12.65934066,13.42391304,10.20879121,9.533333333,10404004.66,23.75343529,8152.666443,0.040564946
Davis Monthan Afb,AZ,USA,32.167,-110.883,6.677386301,5.486021918,21.70553653,3.279737443,0.475456621,7470.131868,7581.173913,5833.131868,5879.788889,6769.593407,7112.184783,4506.824176,3576.922222,21.91062271,30.48220109,21.35480769,13.1562963,3.565430403,3.58129529,3.388415751,2.613425926,12.62637363,12.65217391,11.13186813,9.322222222,9685541.294,22.11310798,7999.527044,0.043498883
Deer Valley Phoenix,AZ,USA,33.683,-112.083,6.986547945,5.592969863,22.77377854,2.889691781,0.476826484,7273.802198,7810.206522,6764.978022,6155.8,6619.054945,7356.195652,4769.747253,3647.588889,21.73324176,33.01947464,23.78727106,12.62050926,3.215384615,3.283197464,2.437042125,2.650462963,11.74725275,13.32608696,11.23076923,9.555555556,10100517.02,23.06054113,8046.474128,0.041753113
Douglas Bisbee-douglas Intl A,AZ,USA,31.467,-109.6,7.028712329,5.639890411,17.62326484,3.443287671,0.45673516,8118.956044,6863.152174,6664.626374,6541.822222,6987.021978,6852.967391,4834.879121,3914.377778,19.40384615,25.86245471,17.3385989,7.907222222,4.050137363,3.445018116,3.280815018,3.035277778,12.10989011,11.92391304,10.15384615,9.755555556,10183073.74,23.24902681,8070.209024,0.041422857
Flagstaff Pulliam Arpt,AZ,USA,35.133,-111.667,6.739567123,5.201284932,7.891347032,2.727305936,0.526598174,7137.648352,7778,6497.472527,5595.222222,6157.054945,6916.184783,4435.472527,3314,6.442582418,18.32798913,8.151785714,-1.480092593,3.288782051,2.629891304,2.781456044,2.237731481,13.86813187,14.42391304,12.03296703,10.32222222,9173208.892,20.9433993,7999.660825,0.045872487
Grand Canyon Natl P,AZ,USA,35.95,-112.15,6.892413699,5.200665753,8.707134703,3.002648402,0.460844749,7283.978022,7850.413043,6592.857143,5896.677778,6268.516484,6988.586957,4374.362637,3186.566667,7.595375458,18.57083333,8.986996337,-0.426944444,3.845970696,2.656657609,2.872527473,2.672453704,11.54945055,13.9673913,10.20879121,8.577777778,9252809.135,21.12513501,7767.069823,0.045484949
Kingman (amos),AZ,USA,35.267,-113.95,7.692994521,5.692476712,17.62091324,4.225742009,0.478538813,8764.098901,9453.282609,6839.879121,5758.655556,7069.714286,7805.565217,4636.923077,3270.422222,17.91666667,29.37875906,16.45283883,6.705833333,5.060851648,4.709148551,3.589102564,3.586388889,12.69230769,14.32608696,10.40659341,8.577777778,10920421.96,24.93247023,8212.112784,0.03869428
Luke Afb,AZ,USA,33.55,-112.367,6.888369863,5.586687671,23.08660959,3.356335616,0.476712329,7555.362637,7918.706522,6710.351648,5417.266667,6788.417582,7399.423913,4814.967033,3360.955556,22.42559524,34.20557065,23.1595696,12.6075,3.68525641,3.930253623,3.188278388,2.650648148,12.31868132,13.92391304,10.67032967,8.922222222,10014054.9,22.86313905,8050.893678,0.042105005
Page Muni (amos),AZ,USA,36.933,-111.45,6.855624658,5.366945205,15.77823059,2.287191781,0.454680365,7874.142857,8095,6020.527473,5479.422222,6780.736264,7315.978261,4232.274725,3152.011111,16.71671245,27.46480978,14.65251832,4.222083333,2.690934066,2.719338768,2.013461538,1.74212963,12.32967033,13.19565217,9.659340659,8.533333333,9477075.693,21.63715912,7873.366633,0.044432925
Phoenix Sky Harbor Intl Ap,AZ,USA,33.45,-111.983,6.91430411,5.737542466,23.80270548,2.758493151,0.513584475,7601.120879,7916.445652,6714.582418,5474.211111,6825.813187,7680.076087,4976.868132,3484.355556,23.01089744,34.47558877,24.40032051,13.39587963,3.400641026,3.050996377,2.291254579,2.317222222,13.07692308,14.31521739,12.15384615,9.844444444,10158295.57,23.19245563,8206.743071,0.041522263
Prescott Love Field,AZ,USA,34.65,-112.417,6.866441096,5.347142466,13.49476027,3.391563927,0.511415525,7332.362637,7790.51087,6891.725275,5501.466667,6370.978022,7124.01087,4644.637363,3265.3,12.35128205,23.68129529,13.83598901,4.060046296,4.050961538,3.258288043,3.112545788,3.186990741,13.97802198,13.65217391,11.12087912,10.44444444,9500037.541,21.68958343,8102.138961,0.044329392
Safford (amos),AZ,USA,32.817,-109.683,7.212663014,5.69270411,19.76319635,3.582442922,0.461757991,8371.527473,7599.532609,6415.934066,6531.177778,7113.758242,7168.423913,4682.538462,3831.988889,21.22710623,28.79750906,19.77934982,9.280833333,4.025961538,3.842844203,3.380448718,3.117824074,12.30769231,12.42391304,9.967032967,9.722222222,10387128.53,23.71490533,8168.675812,0.04062932
Scottsdale Muni,AZ,USA,33.617,-111.917,7.048553425,5.637715068,22.75259132,1.866164384,0.479794521,7339.802198,7964.402174,6782.197802,6165.5,6695.681319,7454.543478,4780.791209,3639.877778,21.871337,33.29637681,23.37362637,12.52949074,1.964880952,2.331023551,1.878159341,1.300324074,12.14285714,13.32608696,11.14285714,9.533333333,10182559.53,23.2478528,8109.653807,0.041425131
Show Low Municipal,AZ,USA,34.267,-110,7.125175342,5.40409863,12.14672374,4.422226027,0.458447489,8981.593407,7241.815217,6642.208791,5696.4,7136.593407,6541.717391,4509.076923,3454.466667,12.27220696,21.20430254,12.35462454,2.705601852,5.481868132,4.313586957,3.478479853,4.471111111,12.42857143,12.2826087,10.20879121,9.177777778,9887655.126,22.57455508,7995.750693,0.04263014
Tucson International Ap,AZ,USA,32.133,-110.95,6.9776,5.648846575,20.41413242,3.577054795,0.514611872,7706.857143,7426.478261,6993.879121,5842.455556,6800.967033,7239.021739,4983.428571,3593.988889,19.45531136,29.98179348,20.63365385,11.64143519,4.143040293,3.576675725,3.410714286,3.221203704,13.56043956,14.32608696,11.75824176,9.844444444,10203352.16,23.29532458,8222.272515,0.041343413
Winslow Municipal Ap,AZ,USA,35.033,-110.717,7.334676712,5.468621918,13.35197489,3.546792237,0.470205479,8922.241758,7257.858696,6823.56044,6406.288889,7023.274725,6820.217391,4541.142857,3513.611111,13.11428571,24.9548913,12.83319597,2.423703704,4.399313187,3.807518116,2.908104396,3.108657407,12.73626374,12.91304348,10.35164835,9.222222222,10087181.23,23.03009413,8093.641693,0.041807271
Yuma Intl Arpt,AZ,USA,32.667,-114.6,6.352027397,5.415493151,24.26858447,3.219726027,0.50456621,6926.307692,6893.543478,6796.681319,4838.8,6401.978022,6973.543478,4914,3392.611111,23.15352564,33.60289855,25.11662088,15.30347222,2.955723443,3.455842391,3.299038462,3.205648148,13.42857143,14.01086957,11.17582418,9.911111111,9343370.391,21.33189587,8033.0906,0.045055484
Yuma Mcas,AZ,USA,32.65,-114.617,6.223994521,5.394682192,23.98004566,3.156757991,0.507876712,6272.285714,6526.206522,7196.175824,4952.411111,6349.956044,6804.978261,5014.802198,3431.2,23.19734432,33.09746377,25.21410256,14.51009259,3.321840659,3.257653986,3.073397436,3.010972222,13.17582418,13.9673913,11.93406593,9.766666667,9058946.138,20.68252543,7993.634315,0.046438435
Alturas,CA,USA,41.5,-120.533,6.245383562,4.854194521,9.163664384,2.456289954,0.456278539,6273.923077,8964.891304,5449.351648,4310.855556,5701.351648,7680.293478,3685.923077,2343.911111,7.850228938,19.82880435,8.510485348,0.361944444,3.011630037,2.494248188,2.142445055,2.204305556,11.54945055,14.06521739,10.05494505,8.188888889,8206048.254,18.73526999,7456.699881,0.051157166
Arcata Airport,CA,USA,40.983,-124.1,3.62529589,3.869446575,10.74315068,2.773242009,0.46130137,4009.681319,4670.043478,3363.384615,2473.777778,4662.615385,5746.206522,3117.824176,1951.966667,9.813232601,13.11752717,11.78113553,8.342453704,3.104761905,2.597418478,2.405586081,3.023564815,10.57142857,13.91304348,10.84615385,9.022222222,4706297.072,10.74497048,6384.931602,0.088441955
Bakersfield Meadows Field,CA,USA,35.433,-119.05,5.729635616,5.191380822,18.50618721,2.854531963,0.49109589,5943.076923,8538.706522,5581.923077,2855.344444,6028.626374,7737.271739,4475.703297,2523.677778,17.78594322,27.01068841,19.71460623,9.552453704,3.441849817,3.403804348,2.217994505,2.377916667,13.04395604,14.76086957,11.27472527,8.122222222,8653636.694,19.7571614,7656.08489,0.04856429
Beale Afb,CA,USA,39.133,-121.433,4.983027397,4.674331507,16.84065068,2.777031963,0.467922374,5499.098901,7537.032609,4311.824176,2584.488889,5563.681319,7259.652174,3724.945055,2144.2,16.31021062,25.93179348,16.99665751,8.140833333,3.462912088,2.590625,2.933287546,2.150694444,11.92307692,14.66304348,10.16483516,8.222222222,7242786.343,16.53604188,7244.224272,0.05782611
Bishop Airport,CA,USA,37.367,-118.35,7.52819726,5.532156164,14.34748858,3.450273973,0.471118721,8231.054945,9581.25,6989.21978,5347.466667,6777.516484,7904.456522,4471.747253,2981.6,13.84812271,25.21227355,13.76108059,4.515231481,4.109340659,3.422192029,3.327289377,2.982314815,12.47252747,13.05434783,10.87912088,8.9,10515401.94,24.00776698,8206.749256,0.040146114
Blue Canyon Ap,CA,USA,39.3,-120.717,6.317542466,4.984345205,11.04660959,2.403401826,0.440639269,5728.296703,9649.73913,5543.032967,4360.4,5336.197802,8038.26087,3969.087912,2588.722222,7.49478022,19.57006341,13.45787546,3.625740741,2.574221612,2.199456522,1.848763736,3.031018519,9.725274725,13.85869565,10.35164835,8.422222222,8826041.574,20.15077985,7387.617991,0.04763336
Blythe Riverside Co Arpt,CA,USA,33.617,-114.717,7.222767123,5.691621918,24.26542237,3.491849315,0.482876712,8090.340659,8809.054348,6309.56044,5727.622222,7012.450549,7670.23913,4564.296703,3536.622222,24.45105311,35.14764493,23.37834249,14.15768519,3.635989011,4.052173913,3.063553114,3.253240741,12.48351648,13.60869565,10.81318681,9.533333333,10516749.68,24.01084402,8220.348926,0.040141175
Burbank-glendale-passadena Ap,CA,USA,34.2,-118.35,5.747854795,5.207347945,17.83039954,2.396541096,0.449200913,6074.637363,7601.173913,5224.065934,4116.411111,6108.461538,7535,4263.791209,2928.744444,17.24674908,22.16870471,19.37742674,12.6449537,2.632509158,2.767300725,2.177838828,2.028981481,11.50549451,12.81521739,10.28571429,8.588888889,8516701.356,19.44452364,7482.949574,0.04932783
Camarillo (awos),CA,USA,34.217,-119.083,5.295627397,4.97439726,15.57784247,2.722956621,0.442579909,6213.769231,6336.043478,4702.549451,3962.255556,6164.296703,6578.358696,4176.186813,2994.022222,15.21240842,19.04180254,16.20750916,11.96731481,3.173168498,2.335371377,2.326465201,3.096018519,12.2967033,11.88043478,9.769230769,8.622222222,7701611.615,17.58358816,7237.976648,0.054440633
Camp Pendleton Mcas,CA,USA,33.3,-117.35,5.099693151,5.044120548,15.63931507,2.048812785,0.447945205,5246.021978,5641.315217,4998.736264,4556.822222,5821.32967,6763.76087,4350.538462,3257.755556,15.02394689,19.34528986,16.4029304,11.89856481,2.494459707,2.270108696,1.780357143,1.669537037,11.73626374,12.10869565,10.07692308,9.166666667,7432525.009,16.96923518,7334.306547,0.056376171
Carlsbad Palomar,CA,USA,33.133,-117.283,5.224073973,5.03689863,15.72079909,2.207614155,0.433561644,5766.857143,6179.576087,4503.131868,4485.522222,5896.065934,7022.184783,3992.241758,3251.011111,14.63237179,18.6772192,16.29615385,13.41675926,2.430906593,2.430072464,1.985347985,2.007314815,10.69230769,12.41304348,9.362637363,9.233333333,7621233.134,17.40007565,7143.898997,0.055003512
China Lake Naf,CA,USA,35.683,-117.683,7.752690411,5.749742466,18.15638128,3.471700913,0.473630137,8274.615385,9690.565217,7346.505495,5740.866667,6954.758242,7949.565217,4790.78022,3316.133333,18.37413004,29.42617754,17.77156593,7.028981481,4.261584249,3.919067029,2.830265568,2.909490741,12.42857143,13.15217391,10.6043956,9.366666667,10992348.16,25.0966853,8318.813412,0.038448218
Chino Airport,CA,USA,33.967,-117.633,5.391052055,5.128210959,17.13657534,2.642146119,0.453196347,6109.065934,6933.836957,4495.340659,4053.555556,6170.593407,7342.358696,3974.648352,3034.255556,16.23118132,22.39669384,18.17449634,11.83731481,2.883058608,2.811548913,2.73974359,2.159074074,11.72527473,12.55434783,10.6043956,8.7,7907500.769,18.05365472,7354.061997,0.053050069
Chula Vista Brown Field Naas,CA,USA,32.583,-116.983,5.745024658,5.273567123,16.01060502,2.590890411,0.459703196,5652.472527,7088.195652,5363.967033,4914.711111,6057.340659,7247.097826,4403.373626,3402.155556,14.65398352,18.94184783,17.21163004,13.37148148,2.859065934,2.479076087,2.457967033,2.600925926,11.82417582,12.7173913,10.26373626,9.411111111,8470443.718,19.3389126,7647.646704,0.049592918
Concord Concord-buchanan Fiel,CA,USA,38,-122.05,5.095109589,4.860871233,15.00628995,3.647283105,0.445890411,5373.131868,7626.228261,4858.076923,2522.911111,5621.868132,7605.032609,4043.472527,2166.766667,14.2543956,20.22925725,16.60068681,9.007453704,4.460119048,5.127490942,2.833653846,2.182824074,11.14285714,13.63043478,10.24175824,7.844444444,7542153.168,17.21952778,7155.324029,0.055569833
Crescent City Faa Ai,CA,USA,41.783,-124.233,3.892882192,3.955750685,10.84849315,3.806038813,0.400342466,4518.956044,4632.01087,3783.659341,2657.988889,4931.197802,5864.423913,3141.868132,1885.255556,10.28131868,12.86802536,11.66533883,8.669722222,4.594871795,3.370969203,3.259020147,4.053194444,10.50549451,12.47826087,8.516483516,6.977777778,5125986.999,11.70316666,6308.580809,0.081281755
Daggett Barstow-daggett Ap,CA,USA,34.85,-116.8,7.461564384,5.724978082,19.69063927,4.931164384,0.510045662,7759.879121,9431.836957,7288.67033,5403.6,6751.252747,7960.141304,4853.604396,3347.133333,19.42600733,30.73967391,19.72087912,8.883055556,6.343910256,5.561141304,4.222802198,3.637731481,12.58241758,14.59782609,11.87912088,9.988888889,10774757.74,24.59990351,8333.301314,0.039204545
Edwards Afb,CA,USA,34.9,-117.867,6.758271233,5.435865753,16.01149543,4.360388128,0.482762557,6861.21978,8727.152174,6817.054945,4657.2,6300.604396,7683.684783,4709.362637,3058.722222,14.50224359,26.14202899,16.01149267,7.383657407,5.39271978,4.963677536,3.648214286,3.4725,12.95604396,13.34782609,11.25274725,8.866666667,9684262.22,22.11018772,8018.199347,0.043504612
Fresno Yosemite Intl Ap,CA,USA,36.783,-119.717,5.654205479,5.153057534,17.89976027,2.890273973,0.487442922,6290.736264,8700.728261,5203.417582,2415,6260.549451,7781.130435,4272.32967,2294.555556,17.37124542,27.1834692,18.40659341,8.658518519,3.649862637,3.272282609,2.419093407,2.246296296,13.15384615,15,10.67032967,8.022222222,8533386.374,19.48261729,7606.853492,0.049234208
Fullerton Municipal,CA,USA,33.867,-117.983,5.056972603,5.044564384,17.6460274,1.850410959,0.437899543,5409.978022,6384.304348,4574.912088,3886.822222,5894.934066,7057.51087,4216.131868,3020.755556,15.90164835,22.17477355,18.74922161,13.88837963,2.17779304,2.033876812,1.581456044,1.626805556,11.35164835,12.15217391,9.813186813,8.8,7545531.865,17.2272417,7230.338726,0.055545994
Hayward Air Term,CA,USA,37.667,-122.117,4.963249315,4.876909589,14.78807078,3.079714612,0.440525114,5941.714286,6505.51087,4500.582418,2920.333333,6079.274725,7094.369565,3980.78022,2354.722222,14.87069597,17.88057065,16.31002747,10.19185185,3.710622711,3.909782609,2.633928571,2.083425926,11.83516484,12.91304348,9.835164835,7.766666667,7244174.72,16.53921169,7210.571108,0.05781494
Imperial,CA,USA,32.833,-115.583,7.231569863,5.768052055,23.36902968,3.305856164,0.490753425,7919.461538,8490.652174,6660.483516,5906.755556,7011.32967,7621.065217,4803.384615,3656.244444,23.19505495,32.79913949,24.01671245,13.54657407,3.689148352,3.528985507,3.046428571,2.993101852,12.65934066,13.58695652,11.35164835,9.6,10609978.28,24.2236947,8239.580681,0.039797355
Jack Northrop Fld H,CA,USA,33.917,-118.333,5.026243836,5.017794521,16.82296804,2.413881279,0.439269406,5379.21978,6155.271739,4438.736264,4165.111111,5958.417582,6925.608696,4068.835165,3131.766667,15.3279304,19.84764493,18.25837912,14.00564815,2.826648352,3.078713768,2.103021978,1.660972222,11.48351648,12.23913043,9.505494505,9.022222222,7374432.502,16.83660389,7207.167205,0.056811366
Lancaster Gen Wm Fox Field,CA,USA,34.733,-118.217,7.253027397,5.712150685,16.87914384,4.964006849,0.474086758,7805.703297,9119.641304,6794.538462,5330.288889,6863.461538,7896.423913,4803.307692,3297.644444,17.05874542,26.55611413,17.04207875,6.855740741,6.416804029,5.77798913,4.038461538,3.663194444,12.42857143,13.17391304,10.75824176,9.233333333,10529002.35,24.03881816,8211.476535,0.040095576
Lemoore Reeves Nas,CA,USA,36.333,-119.95,5.794021918,5.234386301,16.94065068,3.383824201,0.450228311,6866.351648,8233.5,5179.703297,2901.611111,6491.252747,7677.73913,4259.703297,2509.577778,17.1467033,25.77780797,16.85599817,8.000185185,4.245695971,3.787952899,3.056501832,2.474212963,12.20879121,13.19565217,10.04395604,7.833333333,8721254.324,19.91153955,7611.019283,0.048195204
Livermore Municipal,CA,USA,37.7,-121.817,5.439621918,5.002605479,14.15123288,3.153641553,0.450228311,6117.659341,7871.565217,4707.67033,3068.588889,6099.296703,7588.347826,3964.692308,2355.555556,13.84267399,19.95416667,14.83891941,8.010601852,3.122893773,4.257472826,2.98264652,2.269259259,11.7032967,13.76086957,9.923076923,7.888888889,8014576.855,18.29812067,7355.144676,0.05235468
Lompoc (awos),CA,USA,34.667,-120.467,4.840030137,4.705106849,12.9484589,3.251518265,0.405365297,5926.56044,4419.271739,4768.307692,4297.833333,6071.065934,5690.663043,4088.054945,2992.7,12.14665751,14.90366848,14.15627289,10.7037037,3.92724359,3.67192029,2.758653846,2.676064815,11.64835165,9.304347826,9.32967033,8.733333333,6971094.045,15.91573983,6857.858905,0.060037532
Long Beach Daugherty Fld,CA,USA,33.833,-118.167,5.097073973,4.983131507,17.48194064,2.788093607,0.501940639,5236.032967,6604.25,4832.230769,3740.322222,5765.197802,7007.206522,4284.087912,2885.5,16.62440476,20.84886775,19.05586081,13.53810185,3.150549451,3.138541667,2.552106227,2.337731481,13.14285714,13.9673913,11.38461538,9.777777778,7638646.154,17.4398314,7606.836178,0.054884042
Los Angeles Intl Arpt,CA,USA,33.933,-118.4,4.829556164,4.998772603,16.83745434,3.363002283,0.486073059,4973.21978,5856.717391,4798.131868,3719.744444,5736.725275,7051.25,4283.89011,2932.9,15.95045788,19.38582428,18.07362637,14.0950463,3.775412088,3.536956522,3.294734432,2.879074074,12.61538462,12.23913043,11.59340659,10.32222222,7182131.308,16.39756006,7477.557983,0.058307971
March Afb,CA,USA,33.9,-117.25,6.34510411,5.439271233,17.25599315,2.615148402,0.463584475,6197.56044,7980.586957,6141.813187,5098.511111,6054.868132,7627.880435,4708.208791,3379.211111,15.51781136,23.91630435,18.31662088,11.35527778,2.763827839,2.658695652,2.656227106,2.411157407,11.47252747,13.14130435,10.81318681,9.155555556,9314909.632,21.26691697,7822.43718,0.045188734
Merced Macready Fld,CA,USA,37.283,-120.517,5.645410959,5.136473973,16.85011416,2.684041096,0.448401826,7213.923077,8257.326087,4919.857143,2185.855556,6628.351648,7724.891304,4088.230769,2099.044444,17.23365385,24.85049819,16.31414835,9.038703704,3.015521978,3.508423913,1.980357143,2.251481481,12.46153846,13.51086957,10.23076923,6.888888889,8519428.63,19.4507503,7445.257662,0.049312094
Modesto City-county Ap,CA,USA,37.633,-120.95,5.528890411,5.041347945,16.90880137,3.170159817,0.438926941,6480.252747,8269.293478,5124.637363,2235.833333,6204.978022,7702.902174,4159.967033,2091.277778,17.07783883,24.23772645,17.06236264,9.306435185,3.490567766,3.841666667,2.55952381,2.817037037,11.93406593,13.43478261,10.01098901,6.8,8303590.26,18.95796863,7368.524517,0.050567334
Montague Siskiyou County Ap,CA,USA,41.783,-122.467,6.105936986,4.792435616,11.35894977,2.542579909,0.468493151,6395.054945,8952.358696,5403.186813,3682.333333,5687.21978,7527.195652,3709.131868,2240.766667,10.14583333,20.89302536,11.87522894,2.462685185,2.941529304,3.057246377,2.08452381,2.108935185,12.47252747,14.19565217,10.13186813,8.233333333,8248854.41,18.83300094,7488.766722,0.050897116
Monterey Naf,CA,USA,36.6,-121.867,5.047520548,4.720624658,13.11768265,2.728116438,0.43173516,5732.098901,5596.163043,4962.615385,3936.433333,5857.406593,6425.923913,3909.318681,2700.788889,12.66625458,14.9240942,14.46945971,10.52592593,3.023351648,3.199818841,2.294917582,2.41962963,11.3956044,11.98913043,9.78021978,8.355555556,7043329.505,16.08066097,7119.811317,0.059434283
Mountain View Moffett Fld Nas,CA,USA,37.4,-122.05,5.342345205,4.921558904,14.76347032,2.595399543,0.443493151,6308.934066,6753.75,5012.912088,3314.7,6161.857143,7028.25,4055.835165,2444,13.94514652,18.23229167,16.86593407,10.10597222,2.85467033,3.340851449,1.96753663,2.238194444,11.71428571,12.88043478,10.27472527,7.766666667,7738032.83,17.66674162,7232.696037,0.054189058
Napa Co. Airport,CA,USA,38.217,-122.283,5.047986301,4.856652055,13.36010274,3.555445205,0.432648402,6165.967033,7152.5,4342.56044,2535.655556,6104.296703,7325.065217,3817.197802,2176.844444,13.20732601,17.83432971,13.53759158,8.931574074,3.669734432,4.256431159,3.053800366,3.274814815,11.8021978,13.34782609,9.21978022,7.211111111,7515931.521,17.15966101,7172.040655,0.05576035
Needles Airport,CA,USA,34.767,-114.617,7.434731507,5.685824658,24.09231735,3.857979452,0.482420091,8140.582418,9365.228261,6563.307692,5711.355556,6935.142857,7856.163043,4604.802198,3360.266667,24.09473443,35.87164855,23.2742674,13.1837037,4.400961538,3.938496377,4.000595238,3.13337963,12.40659341,14.2826087,10.7032967,8.988888889,10704377.74,24.43921858,8212.919256,0.039455061
Oakland Metropolitan Arpt,CA,USA,37.717,-122.217,4.554115068,4.634635616,13.94013699,3.958333333,0.415753425,5035.923077,6019.717391,4439.450549,2735.322222,5501.912088,6866.891304,3909.087912,2260.966667,13.99473443,16.49877717,14.97582418,10.39962963,4.593681319,4.59365942,3.365705128,3.312638889,10.8021978,12.18478261,9.516483516,7.466666667,6625348.705,15.12636691,6788.111569,0.063117788
Oxnard Airport,CA,USA,34.2,-119.2,5.511126027,5.114517808,15.36751142,3.172043379,0.448630137,5789.593407,6523.956522,5207.956044,4562,5913.241758,7032.51087,4369.274725,3156.655556,14.78237179,17.35389493,17.06680403,12.40555556,3.629441392,2.996512681,2.963141026,3.139027778,11.41758242,12.57608696,10.02197802,9.133333333,8023116.347,18.31761723,7415.049498,0.052300468
Palm Springs Intl,CA,USA,33.833,-116.5,6.942158904,5.603208219,24.06577626,3.177477169,0.485159817,7414.21978,8422.826087,6555.989011,5418.877778,6688.725275,7592.48913,4705.824176,3441.755556,23.73727106,33.68238225,23.97834249,14.9637037,3.962774725,3.440625,2.863690476,2.472361111,12.8021978,13.66304348,10.63736264,9.555555556,9992570.158,22.81408712,8109.306602,0.042193734
Palm Springs Thermal Ap,CA,USA,33.633,-116.167,7.286487671,5.743287671,22.83804795,2.818139269,0.48847032,7751.417582,8775.554348,6993.912088,5671.022222,6864.956044,7724.73913,4891.67033,3508.566667,23.17445055,32.70964674,23.00911172,12.52032407,3.613049451,3.202762681,2.320283883,2.159583333,12.45054945,13.5326087,11.52747253,9.466666667,10633759.55,24.27798984,8236.647186,0.039710572
Palmdale Airport,CA,USA,34.633,-118.083,7.483978082,5.784161644,16.90083333,4.297876712,0.482876712,8083.362637,9192.836957,7027.263736,5676.044444,6961.285714,7955.619565,4825.10989,3408.222222,16.41955128,26.86091486,16.97156593,7.345138889,5.138186813,4.658333333,3.872847985,3.559861111,12.58241758,13.27173913,10.61538462,9.977777778,10806790.06,24.67303666,8319.653996,0.039091227
Paso Robles Municipal Arpt,CA,USA,35.667,-120.633,6.59950411,5.464224658,14.81253425,2.983082192,0.468721461,7012.395604,8667.902174,6203.692308,4541.2,6528.692308,7805.5,4550.483516,2979.233333,14.77087912,20.6995471,15.46588828,8.361944444,3.20728022,4.089085145,2.511538462,2.13962963,12.18681319,13.19565217,10.71428571,8.977777778,9713422.832,22.17676446,7962.924252,0.043376668
Point Mugu Nf,CA,USA,34.117,-119.117,5.057254795,5.008205479,14.8636758,2.884703196,0.450684932,5506.692308,5810.641304,4690.857143,4259.355556,5913.857143,6779.913043,4270.934066,3082.522222,13.75210623,17.23093297,16.11749084,12.48800926,3.220421245,2.803442029,2.380815018,3.17212963,11.59340659,12.31521739,10.25274725,9.188888889,7266192.738,16.58948114,7344.476397,0.057643885
Porterville (awos),CA,USA,36.033,-119.067,5.621756164,5.147320548,16.95284247,2.224863014,0.457077626,5992.967033,8333.217391,5481.527473,2678.955556,6041.879121,7721.597826,4381.571429,2442.788889,15.79624542,25.80199275,17.09913004,9.143472222,2.390705128,2.626358696,2.082875458,1.818842593,11.74725275,13.2173913,11.06593407,7.911111111,8466822.135,19.33064414,7593.865363,0.049613322
Red Bluff Municipal Arpt,CA,USA,40.15,-122.25,5.761728767,4.87019726,16.79035388,3.613630137,0.440525114,6084.21978,8550.521739,5254.846154,3161.422222,5843.263736,7635.163043,3852.989011,2142.533333,14.68539377,26.69388587,17.74418498,8.043935185,3.821199634,3.385009058,3.433287546,3.867453704,11.47252747,14.08695652,9.505494505,7.266666667,8142362.43,18.58986856,7312.950542,0.051548413
Redding Municipal Arpt,CA,USA,40.517,-122.317,5.716353425,4.726978082,16.86376712,2.839383562,0.445776256,5718.857143,9048.630435,5327.373626,2764.311111,5497.571429,7660.673913,3801.010989,1937.711111,15.28246337,26.50697464,17.37257326,8.303194444,3.009432234,2.832336957,2.375869963,3.178981481,11.49450549,14.77173913,9.934065934,6.622222222,8051963.015,18.3834772,7119.326718,0.052114477
Riverside Muni,CA,USA,33.95,-117.45,5.543079452,5.210536986,17.45517123,2.405742009,0.453310502,5663.131868,7441.554348,4732.846154,4361.855556,6046.593407,7543.467391,4094.549451,3166.7,16.03040293,23.10851449,18.38901099,12.39111111,2.171886447,2.652264493,2.206913919,2.620509259,11.7032967,12.90217391,9.978021978,9.011111111,8163032.663,18.63706088,7487.077051,0.051421695
Sacramento Executive Arpt,CA,USA,38.5,-121.5,5.566931507,4.940027397,15.54542237,3.323812785,0.505821918,6086.406593,8338,5360.120879,2480,5898.241758,7555.652174,4117.406593,2184.066667,15.0246337,22.38754529,16.10938645,8.70662037,3.392399267,4.297735507,2.658974359,2.973194444,13.12087912,15.07608696,11.43956044,8.988888889,8178632.594,18.67267715,7620.513862,0.0513265
Sacramento Metropolitan Ap,CA,USA,38.7,-121.583,5.493484932,4.954649315,15.90157534,3.427385845,0.444748858,6625.340659,8337.521739,4635.538462,2370.333333,6221.714286,7667.01087,3857.43956,2065.322222,16.28012821,23.29266304,16.11117216,7.951388889,3.758928571,4.080163043,3.061538462,2.839166667,12.05494505,13.94565217,9.824175824,6.911111111,8104986.113,18.5045345,7317.931725,0.051781555
Salinas Municipal Ap,CA,USA,36.667,-121.6,5.244610959,4.844923288,13.4184589,3.534954338,0.438356164,4676.835165,6926.347826,5667.681319,3730.088889,5226.186813,7286.076087,4257.725275,2611.577778,12.46048535,16.08546196,14.35384615,10.8825463,4.228388278,3.915081522,3.017765568,3.01162037,10.85714286,12.47826087,10.03296703,8.788888889,7565536.58,17.27291457,7205.85534,0.05540157
San Diego Lindbergh Field,CA,USA,32.733,-117.167,5.560841096,5.144457534,17.70582192,3.209280822,0.494063927,5483.153846,6567.086957,5516.747253,4717.155556,5852.065934,6977.858696,4540.736264,3222.433333,16.77119963,20.74193841,19.0646978,14.40018519,3.756593407,3.397554348,3.018864469,2.696435185,12.95604396,13.07608696,11.57142857,9.922222222,8311884.37,18.97690495,7602.020015,0.050519558
San Diego Miramar Nas,CA,USA,32.867,-117.133,5.753394521,5.294153425,16.14839041,2.622819635,0.462328767,6096.857143,6744.554348,5110.395604,5107,6239.461538,7134.73913,4359.296703,3460.922222,14.16684982,20.53007246,17.74020147,12.27,3.04720696,2.454574275,2.475228938,2.547268519,11.63736264,12.93478261,10.6043956,9.288888889,8443834.672,19.27816135,7603.619638,0.049745736
San Diego Montgomer,CA,USA,32.817,-117.133,5.521315068,5.183123288,16.53302511,2.539349315,0.44760274,5780.021978,6596.141304,5193.263736,4554.066667,6131.538462,6987,4384.604396,3245.188889,15.24368132,19.73283514,17.90563187,13.3862037,2.921794872,2.687182971,2.3503663,2.22287037,11.76923077,12.09782609,10.03296703,9.155555556,8142183.169,18.58945929,7472.343673,0.0515507
San Diego North Island Nas,CA,USA,32.7,-117.2,5.458161644,5.180326027,16.49582192,2.878892694,0.453995434,6011.934066,6063.206522,5041.010989,4762.177778,6182.604396,6841.73913,4329.571429,3386.344444,15.42239011,19.31521739,17.82779304,13.56439815,3.180082418,3.02486413,2.599908425,2.742222222,11.61538462,12.51086957,10.17582418,9.366666667,7997505.929,18.25914596,7469.177084,0.052465153
San Francisco Intl Ap,CA,USA,37.617,-122.4,4.853383562,4.702558904,13.79375571,4.670753425,0.469178082,5155.252747,6645.130435,4422.164835,3206.533333,5555.978022,6889.967391,3915.604396,2451.588889,13.93727106,15.97644928,14.87847985,10.49472222,5.316666667,5.747780797,4.338186813,3.313472222,11.89010989,14.01086957,10.14285714,9.066666667,6984854.399,15.94715616,7212.10399,0.05992427
San Jose Intl Ap,CA,USA,37.367,-121.933,5.348438356,4.959317808,14.88371005,3.029851598,0.43847032,5433.615385,7634.076087,5045.142857,3291.977778,5665.923077,7579.891304,4147.428571,2442.066667,14.90302198,18.88999094,15.946337,9.88375,3.315247253,3.578487319,2.611080586,2.640833333,11.08791209,13.20652174,9.868131868,7.988888889,7833131.599,17.8838621,7260.404759,0.053543525
San Luis Co Rgnl,CA,USA,35.233,-120.633,5.670490411,5.103682192,14.24872146,3.054863014,0.433333333,6025.879121,7090.934783,5333.516484,4262.866667,6037.978022,7273.184783,4244.824176,2866.4,14.23241758,16.67047101,15.29830586,10.90819444,3.537637363,3.743161232,2.531089744,2.42962963,11.42857143,12.05434783,9.637362637,8.555555556,8345592.287,19.05386367,7345.280846,0.050317702
Sandberg,CA,USA,34.75,-118.717,7.210528767,5.703205479,14.1503653,6.292146119,0.470890411,7914.923077,9231.26087,6193.032967,5541.588889,6828.67033,7934.836957,4594.340659,3468.566667,11.69771062,22.67182971,14.95297619,7.288611111,6.523534799,5.710371377,6.199038462,6.825324074,12.30769231,13.30434783,10.08791209,9.588888889,10533430.24,24.04892749,8189.388629,0.040079015
Santa Ana John Wayne Ap,CA,USA,33.683,-117.867,4.927254795,5.041887671,17.21089041,2.366769406,0.441552511,5358.637363,5935.445652,4497.626374,3949.633333,5841.065934,6991.141304,4245.241758,3102.777778,16.93058608,20.2169837,18.06858974,13.77240741,2.849175824,3.03129529,1.930906593,1.668657407,11.32967033,12.31521739,9.824175824,9,7259856.53,16.57501491,7230.684375,0.057692382
Santa Barbara Municipal Ap,CA,USA,34.433,-119.85,5.556356164,5.08739726,14.73813927,2.514063927,0.444977169,6121,6643.271739,5274.274725,4221.322222,6008.78022,7112.217391,4272.395604,2966.544444,14.60608974,17.61911232,15.63159341,11.21027778,3.074496337,2.629528986,2.203205128,2.174351852,11.89010989,12.5,9.857142857,8.544444444,8168353.571,18.64920907,7335.447381,0.051387736
Santa Maria Public Arpt,CA,USA,34.917,-120.467,5.846106849,5.184876712,13.37464612,3.291187215,0.50890411,6163.56044,6992.467391,5642.956044,4623.655556,6067.318681,7211.217391,4411.461538,3060.877778,12.80196886,15.91807065,14.24867216,10.63837963,3.599130037,3.373550725,3.046565934,3.184814815,12.86813187,14.19565217,11.67032967,10.21111111,8580397.383,19.58994836,7849.748976,0.048971636
Santa Monica Muni,CA,USA,34.017,-118.45,4.975071233,5.003961644,16.63130137,2.647968037,0.441324201,5279.373626,6156.206522,4578.142857,3916.622222,5887.769231,7010.065217,4113.637363,3015.466667,15.11369048,19.59252717,17.9959707,13.97092593,2.884249084,2.90638587,2.385851648,2.441018519,11.50549451,12.27173913,9.813186813,8.855555556,7302514.553,16.67240766,7247.986908,0.057361353
Santa Rosa (awos),CA,USA,38.517,-122.817,4.838558904,4.64029589,13.73261416,2.216666667,0.416210046,5479.153846,7069.086957,4593.175824,2212.622222,5596.626374,7201.369565,3799.373626,1957.177778,13.55851648,18.00131341,14.13562271,9.307962963,2.655128205,2.54057971,1.946336996,1.742268519,10.78021978,13.27173913,9.263736264,6.677777778,7142522.95,16.30713002,6836.148308,0.05862038
South Lake Tahoe,CA,USA,38.9,-120,6.689854795,5.092928767,6.572956621,2.726541096,0.451141553,6334.879121,10076.51087,6384.659341,3969.777778,5783.978022,7924.23913,4232.43956,2426.611111,5.266025641,15.92287138,7.132509158,-2.149814815,3.548076923,2.649773551,2.618131868,2.11625,11.35164835,13.51086957,10.53846154,7.966666667,9213279.644,21.03488503,7668.497512,0.045675169
Stockton Metropolitan Arpt,CA,USA,37.9,-121.233,5.51490137,5.028076712,16.14836758,3.195730594,0.442123288,6817.054945,8138.065217,4751.78022,2349.7,6355.758242,7648.26087,3941.538462,2161.711111,16.47880037,23.58555254,16.57119963,7.988888889,3.632600733,3.902762681,2.775641026,2.496388889,12.24175824,13.48913043,9.505494505,7.255555556,8202789.45,18.7278298,7376.14469,0.051176503
Travis Field Afb,CA,USA,38.267,-121.933,5.225783562,4.877843836,15.66590183,5.660605023,0.461415525,5366.505495,7780.163043,4669.549451,3092.833333,5684.208791,7512.347826,3927.648352,2384.422222,16.34253663,21.68645833,16.37925824,8.30462963,5.81978022,7.676992754,5.121291209,4.060046296,11.61538462,14.22826087,10.46153846,8.044444444,7608203.164,17.37032686,7352.432472,0.055097644
Truckee-tahoe,CA,USA,39.317,-120.133,5.663216438,4.672043836,6.325981735,2.288664384,0.434474886,5495.956044,8807.163043,6121,2218.577778,5278.703297,7475.25,4124.505495,1798.677778,4.216575092,15.30914855,6.937179487,-1.267638889,2.980494505,2.402672101,1.618360806,2.177222222,11.53846154,13.9673913,9.901098901,6.333333333,7823242.782,17.86128489,7083.313268,0.053608583
Twentynine Palms,CA,USA,34.3,-116.167,7.817265753,5.82560274,20.45670091,3.510194064,0.49326484,8345.461538,9801.065217,7304.087912,5861.055556,6989.318681,7999.271739,4837.10989,3491.188889,20.07083333,31.57871377,19.93466117,10.26222222,4.360485348,3.64995471,3.114652015,2.952222222,12.45054945,13.91304348,11.51648352,9.555555556,11249928.86,25.68476909,8420.539422,0.037591338
Ukiah Municipal Ap,CA,USA,39.133,-123.2,5.56849863,4.860252055,14.37136986,1.749600457,0.439041096,6388.406593,8308.315217,4728.714286,2849.766667,5972.571429,7616.771739,3706,2138.877778,13.23337912,21.33836051,14.89148352,8.053194444,1.999221612,2.608740942,1.281272894,1.113796296,11.75824176,13.94565217,9.340659341,7.144444444,8011445.937,18.29097246,7254.603292,0.052373996
Van Nuys Airport,CA,USA,34.217,-118.483,5.8146,5.238317808,18.08478311,2.329657534,0.445319635,6036.43956,7641.76087,5326.241758,4280.922222,6089.142857,7586.326087,4298.714286,2986.1,17.35347985,22.60230978,18.91208791,13.59592593,2.403342491,2.633967391,1.915247253,2.391157407,11.38461538,12.68478261,10.16483516,8.588888889,8615333.763,19.66971179,7493.887201,0.048774626
Visalia Muni (awos),CA,USA,36.317,-119.4,5.999917808,5.18789589,16.03144977,2.016929224,0.480821918,6704.10989,8684.76087,5675.483516,2938.1,6171.549451,7736.532609,4301.604396,2541.822222,16.96309524,25.3263587,15.19844322,6.634490741,2.57779304,1.867255435,1.894001832,1.7525,12.92307692,14.07608696,10.96703297,8.255555556,9012035.907,20.57542445,7707.876321,0.046673053
Yuba Co,CA,USA,39.1,-121.567,5.515975342,4.939210959,16.46366438,3.370353881,0.437899543,6345.945055,8338.641304,4968.505495,2406.233333,6035.494505,7725.01087,3984.472527,2003.266667,16.55119048,24.29325181,16.56639194,8.474444444,3.984249084,3.418478261,2.810622711,3.310601852,11.48351648,14.01086957,9.824175824,6.755555556,8102140.458,18.49803758,7225.498215,0.051798706
Akron Washington Co Ap,CO,USA,40.167,-103.233,5.644972603,4.635808219,9.983972603,4.916289954,0.432648402,6864.824176,6883.98913,4837,4024.688889,5989.692308,6638.271739,3545.065934,2374.288889,9.979899267,21.79501812,10.09111722,-2.069166667,5.492307692,4.897282609,4.883287546,4.451944444,11.3956044,12.38043478,9.538461538,8.288888889,7529223.317,17.19000757,7025.764379,0.055662513
Alamosa San Luis Valley Rgnl,CO,USA,37.433,-105.867,7.066419178,5.357534247,5.272271689,3.404600457,0.526027397,7314.032967,8191.184783,6958.604396,5853.822222,6310.604396,7318.336957,4599.901099,3215.077778,6.159569597,16.93451087,5.647847985,-7.870324074,4.582142857,3.725271739,2.966987179,2.371435185,13.89010989,14.73913043,11.47252747,10.48888889,9419048.794,21.50467761,8123.414795,0.044702091
Aspen Pitkin Co Sar,CO,USA,39.217,-106.867,6.010682192,4.74480274,5.664908676,2.857146119,0.434589041,7101.835165,7120.130435,5710.417582,4143.688889,6024.021978,6616.967391,3904.747253,2439.711111,5.786950549,16.56838768,5.137545788,-5.002777778,3.104807692,3.194519928,2.870467033,2.283657407,11.61538462,12.58695652,9.615384615,7.966666667,7839019.718,17.89730529,7357.345848,0.0535048
Aurora Buckley Field Angb,CO,USA,39.717,-104.75,5.467857534,4.548967123,10.01672374,3.914748858,0.446575342,4835.483516,6249.576087,5403.043956,5434.455556,4998.483516,6567.369565,3849.967033,2788.511111,8.330723443,22.2107337,9.540384615,-0.133935185,4.645604396,4.087318841,3.485989011,3.482407407,11.03296703,13.97826087,9.659340659,8.255555556,6906042.399,15.76722009,7010.536029,0.060594964
Broomfield Jeffco [boulder - Surfrad],CO,USA,40.13,-105.24,5.509871233,4.533142466,10.29974886,3.712180365,0.504680365,5696.032967,6718.521739,5456.153846,4201.666667,5509.989011,6357.032609,3712.296703,2561.355556,9.657371795,21.25511775,10.62449634,-0.450185185,4.114606227,3.610280797,3.698855311,3.468472222,12.97802198,14.11956522,11.1978022,10.24444444,7207909.613,16.45641464,7428.84164,0.05810261
Colorado Springs Muni Ap,CO,USA,38.817,-104.717,5.796767123,4.725827397,9.679965753,4.274840183,0.50456621,5809.582418,6848.206522,5788.461538,4781.811111,5505.362637,6670.369565,4005.362637,2730.855556,9.433608059,20.23845109,9.697710623,-0.766157407,4.811858974,4.176539855,4.322161172,3.840092593,13.69230769,12.97826087,11.82417582,10.04444444,7596521.104,17.34365549,7553.110541,0.055182421
Cortez Montezuma Co,CO,USA,37.3,-108.633,6.69779726,5.092041096,10.08215753,3.009748858,0.452054795,7393.681319,7828.619565,6061.835165,5555.677778,6294.802198,7058.467391,4054.252747,2971.688889,10.33351648,21.21326993,9.527838828,-0.866435185,3.467261905,3.359556159,2.716849817,2.522083333,11.85714286,12.73913043,10.13186813,8.744444444,8998869.062,20.54536315,7577.599696,0.046739011
Craig-moffat,CO,USA,40.5,-107.533,5.560865753,4.562893151,5.387488584,2.435787671,0.428310502,6052.747253,7790.293478,5597.802198,2808.988889,5601.263736,6874.923913,3815.076923,1956.4,4.977701465,17.4432971,6.59478022,-7.677824074,3.088186813,2.849728261,1.922527473,1.902731481,11.06593407,13.58695652,9.417582418,7.088888889,7280953.286,16.62318102,7140.042037,0.057527367
Denver Centennial [golden - Nrel],CO,USA,39.742,-105.179,5.113783562,4.438213699,9.760776256,3.958047945,0.421917808,5891.450549,5653.597826,5201,3744.3,5558.67033,6108.217391,3760.857143,2332.388889,8.307326007,20.40230978,9.645512821,0.588935185,4.383974359,4.035326087,3.447344322,4.015462963,11.05494505,12.4673913,8.989010989,8.055555556,6646648.89,15.17499747,6918.486419,0.062919899
Denver Intl Ap,CO,USA,39.833,-104.65,5.418016438,4.575945205,10.87534247,3.91652968,0.448972603,5461.923077,6656.956522,5095.208791,4493.744444,5320.659341,6651.119565,3773.747253,2563.622222,9.285119048,22.66009964,10.7014652,0.749907407,4.533470696,3.65638587,4.032188645,3.491666667,11.3956044,13.48913043,9,9.288888889,7075383.736,16.15384415,7022.732996,0.05916873
Durango La Plata Co,CO,USA,37.15,-107.75,6.671216438,5.09440274,8.087659817,2.719965753,0.449315068,6898.274725,7708.48913,6507.175824,5621.3,6069.461538,7041.293478,4301.395604,2976.777778,7.21959707,19.8955163,8.975,-3.905740741,3.45467033,2.917708333,2.54235348,1.988101852,11.81318681,12.75,10.27472527,8.366666667,8882436.485,20.27953535,7559.895127,0.047338447
Eagle County Ap,CO,USA,39.65,-106.917,5.571479452,4.6512,6.222945205,2.400308219,0.487671233,5700.362637,7137.771739,5407.736264,4067.533333,5481.351648,6735.75,3905.065934,2487.055556,6.507554945,17.94719203,6.6628663,-6.421342593,2.975915751,2.617527174,2.413369963,1.613009259,13.81318681,13.63043478,10.21978022,9.233333333,7272864.803,16.60471416,7527.965509,0.057593434
Fort Collins (awos),CO,USA,40.45,-105.017,5.755665753,4.625126027,8.315570776,3.273299087,0.436872146,5644.296703,7426.01087,5076.934066,4911.033333,5385.362637,6836.043478,3725.846154,2557.055556,8.18209707,19.96811594,7.501968864,-2.53287037,3.619551282,3.533559783,2.853617216,3.122777778,10.74725275,13.79347826,8.879120879,8.577777778,7458050.129,17.02751171,7112.714177,0.056184864
Grand Junction Walker Field,CO,USA,39.133,-108.533,6.048178082,4.971134247,12.05125571,3.542191781,0.505593607,6192.307692,7887.184783,5860.56044,4279.477778,5925.648352,7267.01087,4109.197802,2585.866667,11.99592491,24.68564312,12.13076923,-0.73962963,4.015155678,4.076313406,3.427838828,2.678564815,13.17582418,14.94565217,11.04395604,9.444444444,8166229.186,18.64435887,7732.88948,0.051403764
Greeley Weld (awos),CO,USA,40.433,-104.633,5.76400274,4.611928767,8.395650685,3.181621005,0.458675799,5730.714286,6896.815217,5747.142857,4720.766667,5400.120879,6708.869565,3784.538462,2559.266667,7.432234432,19.84139493,8.22518315,-2.054398148,4.069184982,3.294112319,2.975045788,2.419444444,11.05494505,13.65217391,10.8021978,8.588888889,7384332.523,16.85920667,7156.291189,0.056736127
Gunnison Co. (awos),CO,USA,38.533,-106.933,6.381780822,5.03520274,4.189394977,2.1943379,0.441324201,7876.549451,7927.065217,6429.571429,3313.366667,6468.912088,7068.184783,4235.252747,2372.188889,5.36043956,15.77468297,4.330540293,-8.930833333,2.654899267,2.62817029,2.221108059,1.284444444,12.03296703,12.66304348,9.659340659,8.077777778,8725541.985,19.92132873,7718.876289,0.048172755
Hayden Yampa (awos),CO,USA,40.483,-107.217,5.554290411,4.586378082,6.114885845,3.537671233,0.424543379,5831.120879,7771.326087,5229.043956,3398.655556,5502.912088,6947.282609,3712.725275,2180.611111,5.038598901,17.88446558,6.523489011,-5.169907407,3.646382784,3.735643116,3.708882784,3.096111111,10.93406593,13.48913043,8.791208791,7.588888889,7341096.8,16.76049498,7166.137432,0.057064468
La Junta Municipal Ap,CO,USA,38.05,-103.533,5.708010959,4.816512329,12.18219178,4.52706621,0.424543379,5807.098901,7603.51087,5418.032967,4026.822222,5535.395604,7214.108696,4048.483516,2468.844444,11.528663,24.85348732,12.61552198,-0.396990741,4.995695971,4.473641304,4.465018315,4.22625,10.51648352,12.77173913,9.967032967,7.555555556,7869904.86,17.96781931,7075.598266,0.053296599
Lamar Municipal,CO,USA,38.067,-102.683,5.89439726,4.903139726,11.45929224,4.263116438,0.428538813,6281.285714,7277.717391,5603.835165,4448.433333,5801.252747,7021.043478,4067.417582,2729.566667,9.473031136,24.20434783,11.46195055,0.575972222,4.698763736,4.760869565,3.882051282,3.753611111,11.15384615,12.76086957,9.43956044,7.844444444,8106117.07,18.5071166,7286.1599,0.051774234
Leadville Lake Co.,CO,USA,39.217,-106.317,5.364378082,4.584441096,2.742773973,3.368093607,0.430022831,7222.868132,6667.326087,4154.043956,3436.722222,6178.186813,6408.98913,3373.461538,2383.266667,2.725228938,12.47866848,2.78228022,-7.203703704,3.634111722,3.150362319,3.404120879,3.328009259,11.84615385,12.57608696,9.054945055,7.866666667,6988552.647,15.95559965,7210.008923,0.05989307
Limon,CO,USA,39.183,-103.717,5.660287671,4.670580822,8.643744292,4.488961187,0.445319635,5630.010989,7068.673913,5221.351648,4757.922222,5432.802198,6758.554348,3808.527473,2689.044444,7.435531136,19.66553442,8.630128205,-1.284212963,5.583379121,4.190398551,4.488369963,3.74625,11.53846154,12.67391304,10.03296703,8.577777778,7462198.025,17.03698179,7115.853314,0.056154214
Montrose Co. Arpt,CO,USA,38.5,-107.9,5.478109589,4.570452055,10.17224886,3.071757991,0.432305936,5233.934066,6877.032609,6030.912088,3796.911111,5181.549451,6556.706522,4072.483516,2476.455556,9.060302198,21.92282609,11.15526557,-1.582407407,3.510302198,3.361820652,2.952564103,2.490972222,10.84615385,12.42391304,9.703296703,8.6,7060860.03,16.120685,7062.184185,0.059288714
Pueblo Memorial Ap,CO,USA,38.283,-104.5,6.31129589,5.0604,11.68885845,4.054794521,0.515068493,6614.615385,7648,6250.285714,4770.011111,6005.549451,7120.586957,4288.725275,2835.255556,11.88873626,23.20122283,11.85196886,-0.301851852,4.126144689,4.574773551,4.048260073,3.510555556,12.24175824,15.05434783,11.91208791,10.32222222,8580753.002,19.59076028,7811.82042,0.048969383
Rifle Garfield Rgnl,CO,USA,39.533,-107.717,5.466468493,4.634550685,10.04372146,2.398378995,0.426598174,6849.32967,6992.108696,5565.373626,2469.433333,5982.791209,6670.880435,3859.637363,2024.766667,10.82312271,21.53799819,10.19720696,-2.525,3.313141026,2.607835145,2.076327839,1.615138889,11.52747253,12.66304348,9.131868132,7.688888889,7437013.596,16.9794831,7119.834535,0.056341019
Trinidad Las Animas County Ap,CO,USA,37.267,-104.333,6.398375342,5.018336986,11.21003425,4.413527397,0.436986301,6339.593407,7288.369565,6344.989011,5673.111111,5795.395604,6857.26087,4318.736264,3115.988889,10.47706044,21.62558877,11.9967033,0.649074074,4.978708791,4.392028986,4.381410256,3.951805556,11.51648352,12.4673913,9.67032967,8.366666667,8609588.481,19.6565947,7463.235355,0.048806293
Bridgeport Sikorsky Memorial,CT,USA,41.183,-73.15,3.708950685,3.886936986,11.10664384,5.010605023,0.472031963,4005.32967,4544.228261,3512.230769,2795.555556,4654.252747,5771.423913,3084.868132,2038.9,9.144093407,21.92753623,13.47367216,-0.223472222,4.540155678,4.589809783,4.766437729,6.227175926,11.61538462,13.18478261,10.95604396,9.644444444,4829394.686,11.02601526,6538.642726,0.086215035
Danbury Municipal,CT,USA,41.367,-73.483,3.692071233,3.82459726,9.935057078,2.994486301,0.395205479,4046.835165,4106.423913,3571.010989,3073.233333,4558.725275,5536.695652,3148.593407,2058.177778,8.809432234,20.94841486,11.6378663,-1.77875,3.222481685,2.684193841,3.030494505,3.083194444,9.604395604,12.09782609,8.78021978,7.511111111,4634984.741,10.58215694,6075.835002,0.089783306
Groton New London Ap,CT,USA,41.333,-72.05,2.949550685,3.445350685,10.45408676,4.044474886,0.356392694,3343.725275,3687.902174,2403.241758,2381.388889,4339.549451,5084.543478,2621.450549,1736.933333,8.949496337,19.66770833,12.31245421,0.80912037,4.619368132,3.225181159,4.025549451,4.37087963,9.56043956,10.73913043,7.395604396,6.566666667,3701336.484,8.450539917,5455.155225,0.112168501
Hartford Bradley Intl Ap,CT,USA,41.933,-72.683,3.310663014,3.756663014,10.39695205,3.475787671,0.45913242,3507.538462,4127.228261,3112.131868,2514.411111,4583.318681,5519.967391,2996.835165,1928.344444,10.18965201,21.53066123,11.56982601,-1.829490741,3.795833333,3.292300725,3.004166667,3.861481481,12.48351648,13.15217391,10.63736264,7.866666667,4187482.664,9.560462703,6318.708288,0.099274757
Hartford Brainard Fd,CT,USA,41.733,-72.65,3.32460274,3.665024658,10.91607306,2.899908676,0.374543379,4129.087912,4441.206522,2551.824176,2188.066667,4732.659341,5539.23913,2690.692308,1695.544444,10.42293956,20.89565217,12.6889652,-0.433425926,3.309935897,2.576811594,2.794276557,2.960925926,10.15384615,11.66304348,7.78021978,6.4,4336159.838,9.899908307,5751.636205,0.09589729
New Haven Tweed Airport,CT,USA,41.267,-72.883,3.352923288,3.751509589,11.04840183,3.831952055,0.37956621,3229.186813,4759.402174,3427.076923,2002.577778,4234.087912,5920.782609,3145.67033,1700.344444,8.877930403,21.3076087,13.2878663,0.635509259,4.338919414,3.163768116,3.875320513,4.00662037,9.626373626,11.86956522,8.637362637,6.344444444,4473429.573,10.21330953,5882.652937,0.09298707
Oxford (awos),CT,USA,41.483,-73.133,3.57550411,3.702841096,9.4431621,3.031906393,0.379109589,3774.615385,4693.847826,2728.736264,3126.888889,4468.131868,5666.434783,2607.087912,2070.888889,7.043727106,20.50692935,11.65027473,-1.552083333,3.315979853,2.200634058,3.296108059,3.366296296,9.692307692,11.92391304,7.813186813,7.011111111,4579513.589,10.45551048,5825.400735,0.090855447
Dover Afb,DE,USA,39.133,-75.467,3.542350685,3.856350685,12.2877968,3.78619863,0.407305936,3595.725275,3784.73913,3581.373626,3240.511111,4522.318681,5362.108696,3364.901099,2183.522222,10.55407509,23.30570652,13.02564103,2.1925,4.594230769,2.501539855,3.380173993,4.742962963,10.37362637,11.51086957,9.703296703,7.577777778,4517093.008,10.31299774,6042.594485,0.092100022
Wilmington New Castle Cnty Ap,DE,USA,39.667,-75.6,3.849139726,4.050830137,12.27437215,4.005468037,0.474771689,4360.197802,4690.880435,3454.098901,2914.155556,4920.351648,5858.684783,3241.846154,2186.6,12.28282967,23.64764493,12.87509158,0.190787037,4.11735348,3.517934783,4.000869963,4.445231481,11.89010989,14.41304348,10.35164835,8.988888889,5145380.976,11.74744515,6691.450278,0.080983622
Crestview Bob Sikes Ap,FL,USA,30.783,-86.517,3.643915068,4.223879452,19.09148402,2.377237443,0.390410959,4568.912088,4170.728261,2854.516484,3008.777778,5311.527473,5710.076087,3256.516484,2629.966667,18.07417582,25.84533514,20.82005495,11.71638889,2.905815018,1.894384058,2.115247253,2.630972222,10.52747253,12.07608696,7.912087912,7.011111111,5367442.694,12.25443537,6280.812897,0.077669951
Daytona Beach Intl Ap,FL,USA,29.183,-81.067,4.534131507,4.855715068,21.27553653,3.395742009,0.462671233,5571.054945,4681.554348,3993.274725,3932.233333,6010.10989,6018.195652,4188.868132,3228.388889,21.35009158,26.60806159,22.45128205,14.83606481,4.000778388,3.023596014,2.993681319,3.615694444,12.2967033,11.55434783,11.67032967,8.988888889,6843593.535,15.62464277,7171.5441,0.061140189
Fort Lauderdale,FL,USA,26.2,-80.167,3.749646575,4.449364384,24.07140411,3.916757991,0.436187215,4141.428571,3543.858696,3305.065934,4055.055556,5150.967033,5375.956522,3823.868132,3474.666667,24.5797619,27.41019022,25.09940476,19.41796296,4.531272894,3.561050725,3.947664835,3.68,10.83516484,11.77173913,9.791208791,9.566666667,5494906.939,12.54544963,6787.278714,0.075896984
Fort Lauderdale Hollywood Int,FL,USA,26.067,-80.15,4.448364384,4.908224658,24.76186073,4.056369863,0.459817352,5427.67033,4317.097826,3437.197802,4664.188889,6077.791209,5973.945652,3906.010989,3704.144444,24.82806777,28.52346014,25.56891026,20.35337963,4.96547619,3.447509058,4.02724359,3.840555556,12.20879121,12.57608696,10.32967033,9.111111111,6794302.427,15.512106,7313.500448,0.061577746
Fort Myers Page Field,FL,USA,26.583,-81.867,4.307260274,4.804887671,23.7806621,3.040399543,0.450684932,5251.373626,3924.076087,3647.175824,4459.633333,5890.340659,5716.402174,4009.527473,3633.188889,23.78218864,27.46118659,25.12266484,18.96731481,3.312728938,2.386096014,3.137179487,3.374305556,12.12087912,11.36956522,10.15384615,9.722222222,6551528.728,14.95782815,7106.561958,0.063820622
Gainesville Regional Ap,FL,USA,29.7,-82.283,4.073575342,4.524389041,20.08199772,3.069006849,0.435730594,5012.450549,3755.608696,3867.417582,3703.011111,5663.362637,5535.967391,3895.989011,3024.355556,20.91684982,26.28147645,20.58058608,12.65523148,3.495100733,2.779528986,2.710805861,3.334953704,11.62637363,11.80434783,9.945054945,8.533333333,5950440.828,13.58548134,6761.47851,0.070163012
Homestead Afb,FL,USA,25.483,-80.383,4.473561644,5.011405479,23.93226027,2.442694064,0.499543379,5231.21978,3779.445652,4128.582418,4815.544444,5909.142857,5815.891304,4481.835165,3872.466667,24.44844322,27.99773551,25.37440476,18.10657407,3.43974359,1.754076087,1.999358974,2.616481481,12.52747253,13.33695652,11.73626374,10.45555556,6831432.186,15.59687714,7613.350158,0.061251132
Jacksonville Craig,FL,USA,30.333,-81.517,3.558753425,4.253224658,20.52226027,3.4468379,0.426027397,4349.450549,3410.717391,2950.263736,3565.388889,5248.142857,5351.565217,3453.142857,2980.733333,20.46877289,26.49859601,21.26964286,13.97157407,4.13228022,2.889402174,3.564010989,3.247037037,11.51648352,11.66304348,9.252747253,8.544444444,5098624.673,11.6406956,6595.626645,0.081715974
Jacksonville Intl Arpt,FL,USA,30.5,-81.7,4.166972603,4.544027397,19.88809361,2.991118721,0.482077626,5086.472527,4212.630435,3720.197802,3688.622222,5586.736264,5704.5,3893.967033,3011.244444,20.15906593,26.44941123,20.77298535,12.26916667,3.369322344,2.608967391,2.582051282,3.449953704,11.94505495,13.35869565,11.49450549,9.566666667,6124005.098,13.9817468,7096.533076,0.068206102
Jacksonville Nas,FL,USA,30.233,-81.667,4.004734247,4.548336986,20.97026256,3.701609589,0.425228311,5002.879121,3875.195652,3617.395604,3564.055556,5736.285714,5660.086957,3808.912088,3008.911111,22.06680403,27.30240036,20.88127289,13.74518519,3.92032967,3.418931159,3.938324176,3.576111111,11.73626374,11.45652174,9.252747253,8.455555556,5892489.699,13.45317283,6869.29503,0.07084431
Key West Intl Arpt,FL,USA,24.55,-81.75,4.956342466,5.174671233,25.56447489,5.058618721,0.515525114,5898.846154,4633.695652,4514.318681,4835.188889,6167.373626,6119.358696,4588.241758,3855.7,25.35357143,29.12146739,26.86190476,21.16092593,5.475503663,4.872146739,4.534020147,5.421990741,13.34065934,13.59782609,11.38461538,11.27777778,7846561.908,17.9145249,7843.589789,0.05345805
Key West Nas,FL,USA,24.583,-81.683,4.773123288,5.143005479,25.3841895,4.1275,0.462442922,4960.67033,5212.01087,4343.549451,4622.233333,6037.428571,6113.271739,4516.571429,3937.355556,25.50279304,28.85153986,26.59587912,20.82171296,4.407600733,3.767028986,4.076877289,4.31625,12.75824176,11.4673913,10.89010989,9.377777778,7610467.351,17.37549623,7564.618526,0.055083222
Lakeland Linder Rgn,FL,USA,27.983,-82.017,3.944873973,4.593846575,21.42157534,2.502511416,0.455936073,4266.923077,3433.869565,3709.241758,4423.688889,5314.406593,5514.565217,4138.241758,3435.811111,22.08186813,26.62173913,22.53177656,14.59083333,3.111401099,1.591893116,2.684935897,2.662731481,11.68131868,12.48913043,10.32967033,9.355555556,5661307.809,12.92536029,6984.235779,0.07369765
Macdill Afb,FL,USA,27.85,-82.517,4.423715068,4.842520548,21.89237443,3.085616438,0.476027397,4679.527473,3900.5,4180.879121,4994.588889,5489.098901,5836.847826,4329.087912,3745.277778,21.98814103,27.67033514,23.14693223,14.90087963,3.185714286,2.727898551,3.383104396,3.086342593,11.28571429,13.08695652,11.24175824,10.17777778,6554638.739,14.96492863,7293.50765,0.063792527
Marathon Airport,FL,USA,24.733,-81.05,4.443665753,4.906468493,26.00212329,3.412454338,0.458105023,6010.505495,4189.945652,3155.076923,4471.055556,6398.945055,5613.804348,3869.835165,3777.022222,26.62838828,29.75326087,27.11753663,20.74185185,3.69793956,2.852672101,3.267857143,3.885416667,12.58241758,11.56521739,10.31868132,9.611111111,6983380.479,15.94379105,7241.226036,0.059936957
Mayport Ns,FL,USA,30.4,-81.417,4.240591781,4.614082192,20.81244292,3.797465753,0.437785388,4946.395604,3819.836957,3969.626374,4278.144444,5625.769231,5595.880435,4047.67033,3211.511111,21.21185897,26.68858696,22.27797619,13.18486111,3.809157509,3.823233696,4.023168498,3.580833333,11.31868132,11.57608696,10.56043956,8.655555556,6144173.725,14.02779389,7000.046587,0.067984552
Melbourne Regional Ap,FL,USA,28.117,-80.65,4.358693151,4.70850137,22.65333333,3.829589041,0.439611872,5042.978022,3920.934783,3938.791209,4587.288889,5745.054945,5472.402174,4127.912088,3518.911111,23.04725275,26.4415308,23.4209707,17.8962037,4.537042125,3.342255435,4.286355311,3.198888889,11.48351648,11.13043478,10.67032967,9.011111111,6466078.518,14.76273634,7091.828073,0.06465067
Miami Intl Ap,FL,USA,25.817,-80.3,3.982216438,4.803093151,24.50690639,4.117751142,0.489611872,4796.153846,3652.282609,3507.648352,4020.588889,5687.483516,5679.434783,4250.472527,3625.188889,24.3032967,27.94288949,25.82696886,20.18222222,5.169322344,3.388903986,3.833699634,4.138287037,12.72527473,12.81521739,11.64835165,9.911111111,6036525.128,13.78202084,7287.408456,0.069181935
Miami Kendall-tamia,FL,USA,25.65,-80.433,4.191386301,4.732287671,23.20355023,3.621746575,0.436643836,4992.615385,3735.130435,3740.956044,4349.655556,5820.956044,5523.076087,3983.615385,3632.733333,23.33521062,26.72373188,23.99249084,18.97449074,4.394139194,2.407518116,3.655265568,4.09337963,12.18681319,11.08695652,9.505494505,9.233333333,6305397.532,14.39588478,7109.781468,0.066272856
Miami Opa Locka,FL,USA,25.9,-80.283,4.489958904,4.900978082,24.00061644,3.576906393,0.444520548,5055.120879,3861.565217,4123.120879,4981.677778,5890.505495,5511.967391,4341.989011,3895.544444,23.17069597,27.99207428,25.33681319,19.71564815,3.995924908,3.192798913,3.62239011,3.544583333,11.9010989,11.34782609,10.20879121,9.311111111,6756636.001,15.42610959,7272.253067,0.061915085
Naples Municipal,FL,USA,26.15,-81.767,4.984210959,5.132745205,22.88667808,3.113824201,0.457762557,6066.164835,3897.336957,4574.527473,5470.877778,6330.637363,5670.086957,4568.142857,4000.166667,23.15233516,27.21508152,23.50206044,17.86347222,3.841529304,2.738224638,3.00764652,2.90662037,11.93406593,11.23913043,11.08791209,9.788888889,7574610.621,17.29363155,7457.993827,0.055338397
Nasa Shuttle Fclty,FL,USA,28.617,-80.717,4.454520548,4.706673973,21.675879,3.151700913,0.432876712,5213.373626,4194.978261,4282.164835,4176.311111,5806.67033,5677.652174,4087.153846,3280.6,21.43974359,26.7473279,23.6157967,15.05157407,3.445009158,2.628713768,3.220009158,3.360462963,11.82417582,11.44565217,9.538461538,8.833333333,6655924.054,15.19617364,6978.066074,0.062834149
Ocala Muni (awos),FL,USA,29.167,-82.217,4.996126027,4.981350685,20.37840183,2.043287671,0.463356164,5221.142857,4766.271739,5041.098901,5013.611111,5721.483516,6079.358696,4544.758242,3607.377778,21.34207875,26.29796196,20.85228938,13.13574074,2.586813187,1.654710145,1.912728938,2.048703704,11.89010989,12.05434783,11.0989011,9.533333333,7419650.168,16.93984057,7433.885088,0.056473067
Orlando Executive Ap,FL,USA,28.55,-81.333,4.208076712,4.63389589,22.16135845,3.288767123,0.429223744,4354.604396,3941.184783,4092.43956,4496.422222,5337.923077,5599.173913,4209.395604,3416.022222,23.04157509,27.01798007,23.63658425,15.10013889,3.891391941,2.806521739,2.961492674,3.543333333,10.86813187,11.20652174,10.43956044,8.777777778,6173729.231,14.09527222,6883.168559,0.06766274
Orlando Intl Arpt,FL,USA,28.433,-81.333,3.893578082,4.506830137,21.86868721,3.651347032,0.421575342,4973.296703,3483.51087,3686.285714,3473.9,5725.681319,5352.956522,3913.032967,3059.977778,21.91163004,26.53084239,23.11639194,16.07953704,4.076053114,3.32803442,3.539056777,3.710925926,11.6043956,11.02173913,9.395604396,8.533333333,5756693.583,13.14313604,6713.457526,0.072490261
Orlando Sanford Airport,FL,USA,28.783,-81.25,5.05010411,5.002605479,21.64708904,3.302180365,0.466210046,5654.626374,4799.01087,5263.956044,4535.422222,6027.835165,6069.347826,4621.912088,3316.044444,20.5952381,27.47192029,22.38534799,16.28680556,3.815613553,3.2125,3.054395604,3.169027778,12.12087912,12.27173913,11.36263736,9.088888889,7578243.291,17.30192532,7383.67439,0.055311761
Panama City Bay Co,FL,USA,30.2,-85.683,4.509709589,4.666194521,20.60855023,3.169965753,0.427054795,4857.923077,4371.923913,4359.846154,4500.111111,5391.241758,5876.728261,4056.681319,3363.788889,19.86721612,27.81988225,21.72019231,13.12583333,3.410897436,2.80620471,3.257921245,3.246296296,10.91208791,11.5326087,9.527472527,9.111111111,6600548.707,15.06974591,6882.444032,0.063352038
