City,State,Country,Latitude,Longitude,LCOH from solar field,Capacity Factor,% of solar energy,% of external energy,Water production,Cost of heat per unit,LCOW,CAPEX,OPEX
Adak Nas,AK,USA,51.883000,-176.650000,0.23817854584174816,1.8777197937283958,3.680330795707656,0.0,13474.28487326617,14.8099419804399,28.562649715342943,13.140476769211187,15.422172946131758
Ambler,AK,USA,67.100000,-157.850000,0.10934190606795936,4.111180528259348,8.057913835388323,0.0,29374.022354691027,6.798879719305713,13.275267111982622,6.027749161952013,7.247517950030609
Anaktuvuk Pass,AK,USA,68.133000,-151.733000,0.1314992856189547,3.41309536049909,6.689666906578216,0.0,25153.764401510078,8.176625579786602,15.68759537383708,7.039071157429599,8.648524216407482
Anchorage Elmendorf,AK,USA,61.250000,-149.800000,0.10474396824730732,4.294352536633146,8.416930971800966,0.0,30731.79632136995,6.512979945617569,12.716928560593285,5.7614355962616965,6.9554929643315875
Anchorage Intl Ap,AK,USA,61.183000,-150.000000,0.11042111784261693,4.071666002731166,7.980465365353084,0.0,28972.115427845503,6.865985107453921,13.427913552830162,6.111367004277851,7.316546548552311
Anchorage Merrill Field,AK,USA,61.217000,-149.850000,0.14612355764632515,3.0693656911507867,6.015956754655542,0.0,22022.847351115735,9.085962814448498,17.620666568723202,8.039788616104305,9.580877952618899
Aniak Airport,AK,USA,61.583000,-159.533000,0.09306478100128039,4.8388005803951675,9.484049137574528,0.0,33778.48027250832,5.786768082659615,11.459107656958876,5.2417786650041664,6.21732899195471
Annette Island Ap,AK,USA,55.050000,-131.567000,0.11228965434812099,4.003228781129809,7.846328411014425,0.0,26791.732209885777,6.982170707366163,14.052896003789925,6.608724629935252,7.444171373854673
Anvik,AK,USA,62.650000,-160.183000,0.07751628633447724,5.822025518006512,11.411170015292765,0.0,40106.92242317585,4.819962684277795,9.646184702650528,4.414684279934246,5.231500422716282
Barrow W Post-w Rogers Arpt [nsa - Arm],AK,USA,71.320000,-156.620000,0.3487541978832973,1.280499803354147,2.509779614574128,0.0,10813.859977296903,21.685536024383428,38.74538697067777,16.373265832154786,22.37212113852299
Bethel Airport,AK,USA,60.783000,-161.833000,0.13851772863577486,3.2399798492009766,6.350360504433914,0.0,23271.299901041708,8.613032366572481,16.7065012824587,7.608474013574015,9.098027268884685
Bettles Field,AK,USA,66.917000,-151.517000,0.09675887188735652,4.652984561175326,9.11984973990364,0.0,33984.50759877318,6.0164666539558285,11.656297732112943,5.210001053917022,6.44629667819592
Big Delta Allen Aaf,AK,USA,64.000000,-145.717000,0.10037634413861483,4.483391297548186,8.787446943194444,0.0,32018.3032789377,6.24140107853907,12.208529455020848,5.529939761956774,6.678589693064075
Big River Lake,AK,USA,60.817000,-152.300000,0.10760417602302969,4.178595761048352,8.190047691654769,0.0,29453.624181646504,6.690827665111986,13.15054973902835,6.011458527777482,7.139091211250867
Birchwood,AK,USA,61.417000,-149.517000,0.07669862444669286,5.885738309896076,11.536047087396309,0.0,40980.066900430254,4.769120468095362,9.499117541289664,4.320622749945554,5.178494791344109
Chulitna,AK,USA,62.883000,-149.833000,0.3166377328817972,1.4108030100842937,2.7651738997652155,0.0,10639.913055876292,19.68853423059015,37.022218018165916,16.64094211884239,20.381275899323526
Cold Bay Arpt,AK,USA,55.200000,-162.717000,0.28971557026399536,1.5428125138844144,3.023912527213452,0.0,10956.247669742737,18.01451415901523,34.8566855740511,16.160480366603974,18.69620520744712
Cordova,AK,USA,60.500000,-145.500000,0.15404134553355417,2.9099120576291053,5.703427632953046,0.0,20504.559602940735,9.578290865276399,18.72200092271808,8.635102695446413,10.086898227271666
Deadhorse,AK,USA,70.200000,-148.483000,0.33529954151160585,1.3317376453074092,2.610205784802522,0.0,11080.15627647607,20.84892549119165,37.50622046698281,15.97976048464434,21.52645998233847
Dillingham (amos),AK,USA,59.050000,-158.517000,0.1381137673576939,3.248362016173313,6.366789551699694,0.0,22766.16165469144,8.587914054301407,16.85408272644657,7.7772909796140395,9.076791746832532
Dutch Harbor,AK,USA,53.900000,-166.550000,0.2993450253612616,1.4924490986827665,2.9252002334182223,0.0,10707.331605087538,18.613273676963246,35.83976910177197,16.53616366061459,19.30360544115738
Emmonak,AK,USA,62.783000,-164.500000,0.11654331768456119,3.854776852731373,7.555362631353491,0.0,27160.773639750732,7.246663493626015,14.225529162726708,6.518930272825704,7.706598889901005
Fairbanks Eielson A,AK,USA,64.650000,-147.100000,0.1293410229942769,3.4713959618419543,6.80393608521023,0.0,25383.03760794063,8.042424809784139,15.488351839634538,6.9754907427667625,8.512861096867775
Fairbanks Intl Arpt,AK,USA,64.817000,-147.850000,0.09433246680947135,4.774168885601315,9.357371015778577,0.0,34489.60926840652,5.865592786212929,11.427368507176675,5.133700607002686,6.29366790017399
Fort Yukon,AK,USA,66.567000,-145.267000,0.07357311476315162,6.139025951070373,12.03249086409793,0.0,44170.67705996956,4.574776275972768,8.985501457080563,4.0085290137906116,4.976972443289951
Gambell,AK,USA,63.783000,-171.750000,0.15285867133787515,2.932671688496411,5.748036509452965,0.0,21267.245412070675,9.504752183789076,18.331669281308486,8.325432157887986,10.006237123420501
Gulkana Intermediate Field,AK,USA,62.150000,-145.450000,0.10366216213655992,4.340023797719843,8.506446643530891,0.0,31336.407490102563,6.445713241651296,12.535943148130986,5.650273613372133,6.885669534758854
Gustavus,AK,USA,58.417000,-135.700000,0.098242445729689,4.580809186432961,8.978386005408604,0.0,31935.418499604202,6.108715275472062,12.090526045075212,5.544292052397996,6.546233992677216
Hayes River,AK,USA,61.983000,-152.083000,0.13734377142438353,3.2668538412828405,6.403033528914367,0.0,23492.633485597366,8.540035707168167,16.560173732186072,7.536791813311737,9.023381918874337
Healy River Airport,AK,USA,63.883000,-149.017000,0.22649372064098933,1.9752907739018555,3.8715699168476365,0.0,14535.484137643662,14.083379549456716,26.85467563798658,12.181130096314629,14.673545541671952
Homer Arpt,AK,USA,59.650000,-151.483000,0.11534747306913294,3.895858430581645,7.635882523940024,0.0,27483.845200100997,7.172305875438687,14.072779566175418,6.442300772958682,7.630478793216736
Hoonah,AK,USA,58.083000,-135.450000,0.10197499860751352,4.411496025548871,8.646532210075787,0.0,30130.870471046408,6.3408054134151906,12.662301721938348,5.876340477539743,6.785961244398605
Hooper Bay,AK,USA,61.517000,-166.150000,0.10650364612570265,4.222226685404683,8.275564303393178,0.0,29868.520842795166,6.6223967160961905,12.996694720086822,5.9279550381140105,7.068739681972812
Huslia,AK,USA,65.700000,-156.383000,0.09974126154502609,4.511355627646876,8.842257030187877,0.0,32435.04174890422,6.201911642869723,12.0963551813363,5.458889089410145,6.637466091926155
Hydaburg Seaplane,AK,USA,55.200000,-132.833000,0.10465783511690488,4.29747122105777,8.42304359327323,0.0,29642.109301559216,6.507624187569145,12.928242188953675,5.973233627941868,6.955008561011808
Iliamna Arpt,AK,USA,59.750000,-154.917000,0.09116915251717084,4.940669240413153,9.68371171120978,0.0,34237.39789784189,5.668897903517682,11.269360959532449,5.171518138821863,6.097842820710585
Juneau Int'l Arpt,AK,USA,58.350000,-134.583000,0.12095246725654106,3.712810669578996,7.277108912374832,0.0,25880.284286118505,7.520824414011723,14.829646987758043,6.841468791540879,7.988178196217163
Kake Seaplane Base,AK,USA,56.967000,-133.950000,0.10381674814533447,4.33251848749558,8.491736235491338,0.0,29175.423576651367,6.455325399676897,12.973687600376955,6.068780254838767,6.904907345538189
Kenai Municipal Ap,AK,USA,60.583000,-151.233000,0.08176579402632624,5.515740660206854,10.810851694005432,0.0,38735.204812053315,5.084197072556965,10.070350226321551,4.571019700649646,5.4993305256719065
Ketchikan Intl Ap,AK,USA,55.367000,-131.717000,0.11866890077395413,3.785301187945509,7.4191903283731975,0.0,26693.642901599604,7.378832250124468,14.474400629449104,6.633009168450279,7.841391460998824
King Salmon Arpt,AK,USA,58.683000,-156.650000,0.1573899999398688,2.8488612802009006,5.583768109193765,0.0,20506.588821266352,9.786510196261041,18.929346122998933,8.634248217730098,10.295097905268834
Kodiak Airport,AK,USA,57.750000,-152.500000,0.11602668111437571,3.873192322772199,7.59145695263351,0.0,26611.519673108643,7.214539031691881,14.331047616434358,6.653478577460875,7.677569038973481
Kotzebue Ralph Wein Memorial,AK,USA,66.883000,-162.600000,0.10985745986596701,4.0923269616390145,8.020960844812468,0.0,29712.104701353965,6.830936854465829,13.23715958783511,5.9591620072036,7.277997580631511
Lake Hood Seaplane,AK,USA,61.183000,-149.967000,0.06574996773426953,6.880835601278496,13.48643777850585,0.0,47592.27393223616,4.088332993716879,8.20424143646064,3.72034060874268,4.48390082771796
Mcgrath Arpt,AK,USA,62.950000,-155.600000,0.11349263788322493,3.9608215492784087,7.763210236585681,0.0,28690.66050394649,7.056972223578926,13.680231773948826,6.171319208572728,7.508912565376098
Mekoryuk,AK,USA,60.367000,-166.267000,0.16948098974661474,2.643456233829339,5.181174218305505,0.0,18621.12577921611,10.538327942444505,20.575518832374243,9.508495493577456,11.067023338796787
Middleton Island Aut,AK,USA,59.467000,-146.317000,0.08793998239592715,5.124257594568252,10.043544885353773,0.0,35406.80715834785,5.46810810537875,10.893839252096836,5.0007147084243275,5.893124543672509
Minchumina,AK,USA,63.883000,-152.283000,0.07036887019508893,6.42287989941771,12.588844602858712,0.0,44687.04063379347,4.37553634873063,8.73887731416128,3.9622101323857786,4.776667181775502
Nenana Municipal Ap,AK,USA,64.550000,-149.100000,0.09407434273578334,4.786805807183216,9.382139382079103,0.0,34142.26282048735,5.849542631311008,11.46474715717429,5.1859281777744695,6.278818979399821
Nome Municipal Arpt,AK,USA,64.517000,-165.450000,0.11264241284229069,3.9900827466034756,7.820562183342812,0.0,28541.435905176055,7.004105230533635,13.660372591922098,6.203584908493121,7.456787683428977
Northway Airport,AK,USA,62.967000,-141.933000,0.13401876385209038,3.3485934296302196,6.56324312207523,0.0,24079.853833854722,8.33328673632298,16.165403224115266,7.352997544273986,8.812405679841282
Palmer Municipal,AK,USA,61.600000,-149.083000,0.12019024885088235,3.7370065568828426,7.324532851490371,0.0,26549.974786243092,7.473429673547865,14.60571621011044,6.668901795271334,7.936814414839105
Petersburg,AK,USA,56.800000,-132.950000,0.1331634324917997,3.3699934381581746,6.605187138790022,0.0,23833.737921608168,8.280102232340106,16.1898945257457,7.428926973025995,8.760967552719706
Point Hope (awos),AK,USA,68.350000,-166.800000,0.11997400868994414,3.743946498907294,7.338135137858296,0.0,27357.441558264134,7.459983860340726,14.390908382127645,6.472066981218885,7.91884140090876
Port Heiden,AK,USA,56.950000,-158.617000,0.1712535811658803,2.6162198708276843,5.127790946822261,0.0,18461.43038028398,10.648547676894436,20.7698804335957,9.590745607723619,11.17913482587208
Saint Mary`s (awos),AK,USA,62.067000,-163.300000,0.13114279685252686,3.4222350186227777,6.707580636500644,0.0,23839.912630379327,8.154459108290121,16.06228300910882,7.427002835599902,8.635280173508919
Sand Point,AK,USA,55.317000,-160.517000,0.12527854179259906,3.5839012530062546,7.024446455892259,0.0,24376.20193982078,7.78981972866381,15.530488178951614,7.263605523252987,8.266882655698629
Savoonga,AK,USA,63.683000,-170.500000,0.1363279194493223,3.2909510419236745,6.450264042170402,0.0,23502.93246230176,8.47687003135886,16.493629490992294,7.533489207852817,8.960140283139477
Selawik,AK,USA,66.600000,-160.000000,0.08282823375994137,5.444124761271609,10.670484532092352,0.0,38647.36879453765,5.150259575193155,10.147040453958404,4.5814084836414946,5.565631970316908
Seward,AK,USA,60.117000,-149.450000,0.10690834146918049,4.205459507745397,8.242700635180979,0.0,29155.818654732375,6.6475606725536425,13.170097478678791,6.072861003054887,7.097236475623905
Shishmaref (awos),AK,USA,66.267000,-166.050000,0.09491840344721188,4.742765814067452,9.295820995572205,0.0,33771.284921022176,5.9020263263476345,11.575508403926385,5.2428954815041555,6.33261292242223
Sitka Japonski Ap,AK,USA,57.050000,-135.367000,0.10776762045219217,4.172462346365833,8.178026198877033,0.0,28550.562547479538,6.700990639717309,13.355229322714392,6.20160184066186,7.153627482052531
Skagway Airport,AK,USA,59.467000,-135.300000,0.11077684207052982,4.057683250792382,7.95305917155307,0.0,28143.057150377263,6.888104039945544,13.634205604211143,6.291399378558749,7.342806225652395
Sleetmute,AK,USA,61.717000,-157.150000,0.08997240780143936,5.006844527307134,9.813415273521983,0.0,34655.6053514705,5.5944843170934995,11.131104751504306,5.109110884077037,6.021993867427271
Soldotna,AK,USA,60.467000,-151.033000,0.06495372882993311,6.9672213528559395,13.655753851597641,0.0,48262.79301340589,4.038822858645241,8.101855601804731,3.6686537078782897,4.433201893926441
St Paul Island Arpt,AK,USA,57.167000,-170.217000,0.36602667466155947,1.2200747713348212,2.3913465518162496,0.0,8930.209153899472,22.75953863045577,43.35239946286303,19.826843433438192,23.525556029424845
Talkeetna State Arpt,AK,USA,62.317000,-150.100000,0.10654616828611023,4.221109360838903,8.27337434724425,0.0,29829.870951043406,6.625040744030334,13.007196095981154,5.9356357301572045,7.071560365823949
Tanana Ralph M Calhoun Mem Ap,AK,USA,65.167000,-152.100000,0.1521148163024371,2.9476073839613153,5.777310472564178,0.0,21706.28918570322,9.458499277685538,18.113149150554186,8.157037998894083,9.956111151660101
Togiac Village Awos,AK,USA,59.050000,-160.400000,0.09384060595928083,4.797825474620123,9.403737930255442,0.0,33126.29300043593,5.835008878548082,11.61292136019171,5.3449779879214345,6.267943372270274
Unalakleet Field,AK,USA,63.883000,-160.800000,0.10863396193225999,4.1384750658651,8.111411129095595,0.0,28894.930015470196,6.754859752947926,13.333488567728143,6.12769190105593,7.205796666672212
Valdez Pioneer Fiel,AK,USA,61.133000,-146.267000,0.13666289910465113,3.282992005034675,6.434664329867963,0.0,23259.060638051287,8.497699066327208,16.5952637414939,7.612477688334985,8.982786053158913
Valdez Wso,AK,USA,61.133000,-146.350000,0.16770597790091415,2.6713151964915722,5.2357777851234815,0.0,19302.523878742006,10.427957705878843,20.1217709582521,9.172837978859489,10.94893297939261
Whittier,AK,USA,60.767000,-148.683000,0.12321295142545308,3.644094818213552,7.142425843698562,0.0,25275.682912186407,7.661381319634672,15.137617016000977,7.005117982762762,8.132499033238215
Wrangell,AK,USA,56.483000,-132.367000,0.09684605483232478,4.647450905129165,9.109003774053162,0.0,31702.87772582994,6.021887689473955,12.045301089482074,5.584959335296304,6.4603417541857695
Yakutat State Arpt,AK,USA,59.517000,-139.633000,0.16934318848275176,2.646091868136216,5.186340061546983,0.0,18804.703923077606,10.529759459857505,20.4719905907882,9.415670704722084,11.056319886066115
Anniston Metropolitan Ap,AL,USA,33.583000,-85.850000,0.05519443439789647,8.22189229575756,16.114908899684817,0.0,55567.00071308172,3.4319899308612025,7.00169244249995,3.186414967388805,3.815277475111145
Auburn-opelika Apt,AL,USA,32.616000,-85.433000,0.03717456495547313,12.32065644796501,24.14848663801142,0.0,78865.04433979491,2.3115144489313195,4.9182479333524896,2.2450962702064223,2.6731516631460672
Birmingham Municipal Ap,AL,USA,33.567000,-86.750000,0.04361529683656506,10.458418722658578,20.49850069641081,0.0,68875.07608278585,2.7119991572976154,5.651861294291651,2.5707352267781385,3.081126067513513
Cairns Field Fort Rucker,AL,USA,31.267000,-85.717000,0.046445642225624306,9.806448673245153,19.2206393995605,0.0,64801.88784722266,2.887990033589319,5.993154561349694,2.7323211415057433,3.260833419843951
Dothan Municipal Ap,AL,USA,31.233000,-85.433000,0.0404832507393733,11.288193502559976,22.12485926501755,0.0,73908.01842164689,2.5172485309742316,5.278024191714961,2.3956751326888845,2.882349059026076
Gadsen Muni (awos),AL,USA,33.967000,-86.083000,0.045810220220593945,9.945124413636773,19.492443850728073,0.0,64745.56195632966,2.8484794933165314,5.956075691824591,2.7346981412591,3.2213775505654905
Huntsville Intl Jones Field,AL,USA,34.650000,-86.783000,0.04296410705978482,10.621144720084875,20.817443651366354,0.0,69244.5726595603,2.67150817697742,5.59733710362204,2.557017523601779,3.040319580020261
Maxwell Afb,AL,USA,32.383000,-86.350000,0.04548295316852651,10.018730471010326,19.636711723180237,0.0,66454.46014056823,2.8281300280189785,5.863785233256589,2.6643745896750843,3.1994106435815053
Mobile Downtown Ap,AL,USA,30.633000,-88.067000,0.03887907791971473,11.766334095294997,23.062014826778196,0.0,76281.73525166546,2.417501065047862,5.102014173723509,2.3211271834561553,2.7808869902673536
Mobile Regional Ap,AL,USA,30.683000,-88.250000,0.04169690749077385,10.951251672437829,21.464453277978144,0.0,70755.2840217766,2.592713707776318,5.462691584557653,2.5024221669416766,2.9602694176159767
Montgomery Dannelly Field,AL,USA,32.300000,-86.400000,0.04341581469421786,10.50817194430156,20.59601701083106,0.0,68674.5405245553,2.6995953576864666,5.647136906872299,2.578241983563863,3.0688949233084357
Muscle Shoals Regional Ap,AL,USA,34.750000,-87.600000,0.05521016697515483,8.2192532574113,16.109736384526148,0.0,53475.822886801754,3.4329681825151273,7.130141474359716,3.3110198356252094,3.819121638734507
Troy Af,AL,USA,31.867000,-86.017000,0.04359070583784937,10.463484309827273,20.508429247261454,0.0,67543.25920556049,2.7104700889974738,5.702187727702125,2.6214248667689644,3.08076286093316
Tuscaloosa Municipal Ap,AL,USA,33.217000,-87.617000,0.04998065647678098,9.097326847101073,17.830760620318102,0.0,60078.95896672262,3.1077972197262413,6.432694937402605,2.9471140935252826,3.485580843877323
Batesville (awos),AR,USA,35.733000,-91.650000,0.04130567621667562,11.05698592221148,21.6716924075345,0.0,71486.81168709607,2.56838694715289,5.412168495189906,2.4768148074653134,2.9353536877245925
Bentonville (awos),AR,USA,36.350000,-94.217000,0.04082010020998989,11.191948156872147,21.93621838746941,0.0,71636.35614607764,2.5381938310571717,5.376685991383466,2.4716443404949113,2.905041650888555
El Dorado Goodwin Field,AR,USA,33.217000,-92.817000,0.04198893053513681,10.87227976499546,21.309668339391102,0.0,69966.39405810485,2.610871700674807,5.509713977214938,2.5306376114761786,2.9790763657387593
Fayetteville Drake Field,AR,USA,36.000000,-94.167000,0.043943701670258635,10.377158808752988,20.339231265155856,0.0,66184.09474574002,2.732419369856682,5.7792089984798265,2.6752586790060064,3.10395031947382
Flippin (awos),AR,USA,36.300000,-92.467000,0.042940374507859466,10.62551714784093,20.82601360976822,0.0,68338.60129852059,2.6700324868987018,5.630539656586999,2.5909160994020493,3.039623557184949
Fort Smith Regional Ap,AR,USA,35.333000,-94.367000,0.03853182238347409,11.875025698701576,23.275050369455087,0.0,74481.50585753696,2.395908715804419,5.137814092621513,2.377229107348088,2.760584985273425
Harrison Faa Ap,AR,USA,36.267000,-93.150000,0.04682043334449233,9.725186763455937,19.061366056373636,0.0,61924.91858618839,2.911294545360533,6.146319388216455,2.8592618209735305,3.2870575672429245
Jonesboro Muni,AR,USA,35.833000,-90.650000,0.04480770582913958,10.172664660955753,19.938422735473278,0.0,65491.908784721796,2.786143148455899,5.861857945116265,2.7035335255722046,3.1583244195440603
Little Rock Adams Field,AR,USA,34.750000,-92.233000,0.041937425045413645,10.887390663237051,21.339285699944618,0.0,70636.18584286096,2.6076690893238204,5.481963284546181,2.5066414420550927,2.9753218424910877
Little Rock Afb,AR,USA,34.917000,-92.150000,0.050698239432404736,8.967170885269612,17.575654935128437,0.0,58913.3428105368,3.1524165279069263,6.536964697522976,3.0054234307097256,3.53154126681325
Memorial Fld,AR,USA,34.467000,-93.100000,0.04754059252553446,9.574333869723649,18.765694384658353,0.0,61244.026549748,2.956074043237733,6.223618349331867,2.8910501525846852,3.332568196747181
Pine Bluff Faa Ap,AR,USA,34.167000,-91.933000,0.04342496060934435,10.503770797158223,20.58739076243012,0.0,67902.76192986485,2.7001640506890316,5.677683689934909,2.607546079419235,3.0701376105156744
Rogers (awos),AR,USA,36.367000,-94.100000,0.03666773003852811,12.495814275267714,24.491795979524717,0.0,79456.59383652968,2.2799994537956776,4.869633918974512,2.228381686391822,2.6412522325826897
Siloam Spring(awos),AR,USA,36.183000,-94.483000,0.03882114837570601,11.783292532130796,23.095253362976358,0.0,74238.74769043637,2.4138990060013996,5.163756619554439,2.3850025547928055,2.778754064761634
Springdale Muni,AR,USA,36.183000,-94.117000,0.04382752811900194,10.405506872467024,20.394793470035367,0.0,66379.94745723241,2.7251956984395407,5.763910495993976,2.667365393503846,3.096545102490129
Stuttgart (awos),AR,USA,34.600000,-91.567000,0.03937305328498951,11.614809741581487,22.765027093499715,0.0,74691.41695220608,2.4482164532606476,5.183287266520731,2.3705482045553112,2.81273906196542
Texarkana Webb Field,AR,USA,33.450000,-94.000000,0.04127690000286052,11.064250413860565,21.685930811166706,0.0,70488.85360566316,2.566597642177867,5.446251587847495,2.511880689804133,2.9343708980433623
Walnut Ridge (awos),AR,USA,36.133000,-90.917000,0.043592053852591475,10.463249565154339,20.507969147702504,0.0,67744.45638412362,2.710553908554138,5.694307010306904,2.613639395652753,3.080667614654151
Casa Granda (awos),AZ,USA,32.950000,-111.767000,0.025058908702348483,18.530733396387046,36.32023745691861,0.0,109065.68869242207,1.5581629431120287,3.5289240298880955,1.6234223722151186,1.9055016576729766
Davis Monthan Afb,AZ,USA,32.167000,-110.883000,0.026842624813778047,17.25106720323027,33.81209171833133,0.0,100508.33442092362,1.669074410920719,3.7812337899072053,1.7616416216876698,2.0195921682195355
Deer Valley Phoenix,AZ,USA,33.683000,-112.083000,0.025781169745596452,17.990186866734774,35.26076625880016,0.0,105549.33733516607,1.6030731347811873,3.629162034277079,1.6775062556167073,1.9516557786603714
Douglas Bisbee-douglas Intl A,AZ,USA,31.467000,-109.600000,0.025580402482072873,18.137229905210184,35.54897061421196,0.0,103513.92101372514,1.5905894263352913,3.6504221155214163,1.7104913872787144,1.9399307282427016
Flagstaff Pulliam Arpt,AZ,USA,35.133000,-111.667000,0.02828596079147553,16.338544024091565,32.02354628721947,0.0,95006.07435054526,1.7588210420139485,3.975352054309953,1.863666678686221,2.1116853756237317
Grand Canyon Natl P,AZ,USA,35.950000,-112.150000,0.028049716322517265,16.480321273158694,32.301429695391036,0.0,94530.40574573269,1.7441313609341236,3.970255857783041,1.8730444739481105,2.0972113838349307
Kingman (amos),AZ,USA,35.267000,-113.950000,0.023921510381148956,19.45053220532381,38.123043122434666,0.0,109543.25609810505,1.487439515499842,3.4509603150332886,1.6163448675791265,1.834615447454162
Luke Afb,AZ,USA,33.550000,-112.367000,0.025995158750204597,17.83618784945759,34.95892818493688,0.0,106067.89836809947,1.6163789710877219,3.634077999500727,1.6693050131114422,1.964772986389285
Page Muni (amos),AZ,USA,36.933000,-111.450000,0.02741028186376852,16.879765891173218,33.08434114669951,0.0,98137.61480089945,1.7043713262891265,3.8600655950663696,1.8041977211898756,2.055867873876494
Phoenix Sky Harbor Intl Ap,AZ,USA,33.450000,-111.983000,0.02564116556052827,18.093097132896762,35.462470380477654,0.0,104650.79687938013,1.594367674553648,3.635191042151609,1.6919094502423866,1.9432815919092228
Prescott Love Field,AZ,USA,34.650000,-112.417000,0.02734789234974568,16.920663605958286,33.16450066767824,0.0,98390.70897106605,1.7004919463071864,3.8514384702064013,1.799556719354071,2.0518817508523304
Safford (amos),AZ,USA,32.817000,-109.683000,0.025098090038668176,18.50067507950238,36.26132315582466,0.0,106468.39558123845,1.5605992386043872,3.5718745010195185,1.6630256719600502,1.9088488290594683
Scottsdale Muni,AZ,USA,33.617000,-111.917000,0.025581876174208436,18.13631405367132,35.547175545195785,0.0,107048.59257905123,1.5906810605122805,3.5927355209173593,1.6540121802591192,1.9387233406582403
Show Low Municipal,AZ,USA,34.267000,-110.000000,0.026314352094417303,17.611055268499044,34.517668326258125,0.0,99358.81918427427,1.636226413230868,3.769235552681973,1.7820226192092912,1.9872129334726818
Tucson International Ap,AZ,USA,32.133000,-110.950000,0.025532444870652905,18.173348147374554,35.619762368854126,0.0,104820.28861544841,1.5876074220571976,3.6256320950378553,1.6891736783779645,1.9364584166598908
Winslow Municipal Ap,AZ,USA,35.033000,-110.717000,0.025814212304183123,17.966434303170853,35.21421123421487,0.0,103297.08361057834,1.6051277210741066,3.668633590525193,1.714081983823154,1.9545516067020392
Yuma Intl Arpt,AZ,USA,32.667000,-114.600000,0.027789243420294013,16.641621309876065,32.61757776735708,0.0,100883.15329570683,1.7279351558738818,3.833398841288396,1.7550964666808544,2.0783023746075417
Yuma Mcas,AZ,USA,32.650000,-114.617000,0.028630085476950604,16.135028896518147,31.62465663717557,0.0,100265.31573122831,1.7802187149567885,3.8967460847176554,1.7659114073908764,2.130834677326779
Alturas,CA,USA,41.500000,-120.533000,0.03149790014917628,14.61591928630673,28.647201801161188,0.0,86118.26869299539,1.958539431275781,4.371833078240188,2.056005520004308,2.3158275582358803
Arcata Airport,CA,USA,40.983000,-124.100000,0.054163438293027756,8.382458403961557,16.429618471764652,0.0,52138.79402182005,3.367882593060466,7.151915196880411,3.3959262989442283,3.755988897936183
Bakersfield Meadows Field,CA,USA,35.433000,-119.050000,0.029921852442681727,15.413125959295565,30.209726880219307,0.0,91446.09905382643,1.8605407848859499,4.151292523427854,1.9362187082521054,2.2150738151757485
Beale Afb,CA,USA,39.133000,-121.433000,0.035552239931967745,12.90023862869714,25.284467712246396,0.0,79417.669798489,2.2106382789697543,4.8013900328720895,2.229473855231999,2.5719161776400905
Bishop Airport,CA,USA,37.367000,-118.350000,0.0248043438030495,18.72914482896508,36.709123864771556,0.0,104940.04428690631,1.542334097673618,3.578386782180133,1.6872460259105722,1.8911407562695612
Blue Canyon Ap,CA,USA,39.300000,-120.717000,0.02935507776722195,15.720198975179523,30.811589991351862,0.0,90034.44538504956,1.8252987355658608,4.14710672531324,1.9665767250707515,2.180530000242488
Blythe Riverside Co Arpt,CA,USA,33.617000,-114.717000,0.02480137079692205,18.731545330044213,36.713828846886656,0.0,110305.3326862778,1.542149236152613,3.4942462149485527,1.6051778873860605,1.8890683275624924
Burbank-glendale-passadena Ap,CA,USA,34.200000,-118.350000,0.03038565120189642,15.16922831368681,29.731687494826147,0.0,91944.83497509624,1.8893797917339195,4.169387359937392,1.925716097950608,2.243671261986784
Camarillo (awos),CA,USA,34.217000,-119.083000,0.03349373366336901,13.717459411444246,26.88622044643072,0.0,83081.34896494987,2.082640359188285,4.572816800686448,2.131159766860375,2.4416570338260732
Camp Pendleton Mcas,CA,USA,33.300000,-117.350000,0.03467091210126281,13.238185106836406,25.946842809399357,0.0,82933.97515564554,2.1558373144565213,4.649887928380629,2.1349468366804567,2.5149410917001718
Carlsbad Palomar,CA,USA,33.133000,-117.283000,0.033835693104342326,13.57429603951616,26.60562023745167,0.0,84566.78479611895,2.103903397228006,4.555784562599117,2.093725479346149,2.4620590832529676
China Lake Naf,CA,USA,35.683000,-117.683000,0.023772110545307958,19.57864106405781,38.37413648555331,0.0,111267.5291861237,1.4781498337072487,3.416046636073061,1.5912969720095915,1.8247496640634695
Chino Airport,CA,USA,33.967000,-117.633000,0.032648568788163974,14.084171746984069,27.604976624088774,0.0,87208.5120780863,2.030088007248036,4.417087209995701,2.030302250975235,2.3867849590204666
Chula Vista Brown Field Naas,CA,USA,32.583000,-116.983000,0.030547294729011576,15.086838134835663,29.5702027442779,0.0,91311.79681177047,1.8994307862499398,4.193095829725053,1.939066513660912,2.254029316064141
Concord Concord-buchanan Fiel,CA,USA,38.000000,-122.050000,0.03418006831449865,13.433445512653943,26.329553204801726,0.0,82639.40617838933,2.125316647795526,4.627152322223633,2.1425568664986385,2.4845954557249943
Crescent City Faa Ai,CA,USA,41.783000,-124.233000,0.049809790741772955,9.129974621600041,17.89475025833608,0.0,56968.2941588682,3.0971727883234426,6.586694002381028,3.1080363773778945,3.4786576250031342
Daggett Barstow-daggett Ap,CA,USA,34.850000,-116.800000,0.024232061692212488,19.191087420620274,37.61453134441574,0.0,109274.90835521441,1.5067495960217725,3.474330963301278,1.620314142013202,1.854016821288076
Edwards Afb,CA,USA,34.900000,-117.867000,0.026846153748125816,17.248789013984876,33.80762646741036,0.0,101970.14717040482,1.6692938400584632,3.7556180403540793,1.736387292566585,2.0192307477874945
Fresno Yosemite Intl Ap,CA,USA,36.783000,-119.717000,0.030329065649988315,15.198946287054877,29.78993472262756,0.0,89942.95392164994,1.8858613021162733,4.209715734018278,1.968577157284462,2.241138576733816
Fullerton Municipal,CA,USA,33.867000,-117.983000,0.03416580768128071,13.439463337658358,26.341348141810382,0.0,83676.20409740238,2.124429921622035,4.59910748132963,2.1160093447777086,2.483098136551922
Hayward Air Term,CA,USA,37.667000,-122.117000,0.035545339154237014,12.902711473691353,25.28931448843505,0.0,80823.0067536955,2.2102091886104573,4.7613036606518175,2.190708183813646,2.5705954768381716
Imperial,CA,USA,32.833000,-115.583000,0.024592339803632946,18.897596209575283,37.03928857076755,0.0,113290.23885534571,1.5291516889898966,3.4379836775692016,1.562885619334609,1.8750980582345926
Jack Northrop Fld H,CA,USA,33.917000,-118.333000,0.034935122234021426,13.134715621313667,25.744042617774788,0.0,82798.59325656874,2.1722659005114524,4.669887596395473,2.1384376303851615,2.531449966010311
Lancaster Gen Wm Fox Field,CA,USA,34.733000,-118.217000,0.024773622467956183,18.753368715137476,36.756602681669456,0.0,108952.63942557349,1.5404238450575154,3.512908136080309,1.6251068338443728,1.8878013022359361
Lemoore Reeves Nas,CA,USA,36.333000,-119.950000,0.029697305477138024,15.533560773420188,30.44577911590357,0.0,94139.59477474166,1.8465784545684423,4.080657539298116,1.8808202196770996,2.199837319621016
Livermore Municipal,CA,USA,37.700000,-121.817000,0.032225746736471717,14.274886613029546,27.97877776153791,0.0,87238.72656861013,2.0037969320738114,4.390076782267141,2.029599071547732,2.3604777107194095
Lompoc (awos),CA,USA,34.667000,-120.467000,0.03689555781484138,12.416323292093177,24.335993652502626,0.0,76357.7033946293,2.294165784926837,4.9763164978382015,2.3188179011841297,2.657498596654072
Long Beach Daugherty Fld,CA,USA,33.833000,-118.167000,0.03376447729843619,13.605310638020331,26.666408850519847,0.0,82772.70263692654,2.099475198416762,4.597781163522614,2.1391065152549866,2.4586746482676265
Los Angeles Intl Arpt,CA,USA,33.933000,-118.400000,0.03584599222848347,12.792204997658994,25.072721795411628,0.0,79726.20187709878,2.228903796767102,4.810829290541266,2.220846034969857,2.5899832555714086
March Afb,CA,USA,33.900000,-117.250000,0.027869738345974813,16.590929414925675,32.51822165325432,0.0,99442.13543145476,1.7329403303527138,3.864422087807469,1.7805295771796235,2.0838925106278454
Merced Macready Fld,CA,USA,37.283000,-120.517000,0.030375978680186624,15.1740859109262,29.74120838541535,0.0,92016.61207036818,1.8887783543340042,4.1672492297158374,1.924213954429944,2.243035275285893
Modesto City-county Ap,CA,USA,37.633000,-120.950000,0.03113900514873338,14.789652868742346,28.987719622734996,0.0,89711.60381761595,1.9362233401482416,4.265271134928261,1.9736537583382396,2.291617376590021
Montague Siskiyou County Ap,CA,USA,41.783000,-122.467000,0.0313398692418699,14.692161996820658,28.79663751376849,0.0,86396.70044825092,1.9487130694594703,4.3552284128419885,2.049379612299627,2.305848800542362
Monterey Naf,CA,USA,36.600000,-121.867000,0.036529649254195294,12.544982964641774,24.588166610697876,0.0,77120.02198488102,2.2714135906258632,4.930116018695488,2.2958968016320864,2.634219217063401
Mountain View Moffett Fld Nas,CA,USA,37.400000,-122.050000,0.03334075190128692,13.78232978922577,27.01336638688251,0.0,84894.34709201929,2.073127953222021,4.516744743994941,2.0856469118014864,2.431097832193455
Napa Co. Airport,CA,USA,38.217000,-122.283000,0.03429596066776396,13.38674173459975,26.238013799815512,0.0,82795.94701038406,2.132522834321563,4.630214448828214,2.13850597703485,2.491708471793365
Needles Airport,CA,USA,34.767000,-114.617000,0.024384134981471777,19.06573248840702,37.36883567727776,0.0,109675.30652140517,1.516205513147915,3.4777354550366137,1.6143987701746811,1.8633366848619326
Oakland Metropolitan Arpt,CA,USA,37.717000,-122.217000,0.0387681441100726,11.800510916560198,23.129001396457987,0.0,74024.68877166665,2.410603200764314,5.16751619794459,2.391899312981697,2.775616884962893
Oxnard Airport,CA,USA,34.200000,-119.200000,0.03219295923372492,14.290096446893955,28.008589035912152,0.0,88674.63596943827,2.0017582051530156,4.354416869751045,1.9967337874858555,2.35768308226519
Palm Springs Intl,CA,USA,33.833000,-116.500000,0.026049250861734874,17.79792105020136,34.88392525839466,0.0,107146.20393354805,1.6197424185826745,3.6202554004514056,1.6525053586204608,1.967750041830945
Palm Springs Thermal Ap,CA,USA,33.633000,-116.167000,0.024539561534482838,18.939953367519713,37.122308600338634,0.0,111309.25353797407,1.5258699362141428,3.463156520868693,1.5907004737581136,1.8724560471105796
Palmdale Airport,CA,USA,34.633000,-118.083000,0.024163123953529396,19.248140680172483,37.726355733138064,0.0,112278.46568879536,1.5024630474304579,3.425702552653239,1.5769692133165012,1.8487333393367376
Paso Robles Municipal Arpt,CA,USA,35.667000,-120.633000,0.026768219696847194,17.30072744618701,33.90942579452654,0.0,101920.14106090041,1.6644479007499584,3.7516436360964223,1.737239232987745,2.014404403108677
Point Mugu Nf,CA,USA,34.117000,-119.117000,0.03544176553350077,12.941928121634346,25.366179118403316,0.0,81893.1583713766,2.203768980873078,4.725577637179091,2.1620807979530925,2.563496839225999
Porterville (awos),CA,USA,36.033000,-119.067000,0.030559552057599335,15.080387706259941,29.557559904269485,0.0,90289.56437363286,1.9001929469415266,4.2163164497309715,1.9610200418274142,2.255296407903557
Red Bluff Municipal Arpt,CA,USA,40.150000,-122.250000,0.031735381441428186,14.502487492060304,28.424875484438196,0.0,87085.44728499353,1.9733060180280046,4.363240328667954,2.0331713691495104,2.3300689595184436
Redding Municipal Arpt,CA,USA,40.517000,-122.317000,0.032079004870045585,14.34147569380352,28.109292359854898,0.0,85116.49997714588,1.9946725228194344,4.432720609885299,2.080203408666534,2.352517201218765
Riverside Muni,CA,USA,33.950000,-117.450000,0.03165883388815208,14.539303579366502,28.497035015558343,0.0,88846.37131655129,1.9685462911652962,4.317256608804804,1.9928742107913078,2.3243823980134963
Sacramento Executive Arpt,CA,USA,38.500000,-121.500000,0.031601334168297496,14.567088834164645,28.551494114962704,0.0,86762.84414624034,1.9649709585847384,4.36263890878263,2.0407311341132854,2.321907774669344
Sacramento Metropolitan Ap,CA,USA,38.700000,-121.583000,0.03187715526321788,14.435915920495418,28.294395204171018,0.0,88025.7259154877,1.982121514266888,4.349838279490063,2.0114533384390767,2.3383849410509865
Salinas Municipal Ap,CA,USA,36.667000,-121.600000,0.03407791678508481,13.475094058444364,26.411184354550954,0.0,81270.94821661859,2.1189648656965736,4.657707102121638,2.178633662194588,2.479073439927049
San Diego Lindbergh Field,CA,USA,32.733000,-117.167000,0.031110616070697282,14.804425650278604,29.016674274546066,0.0,88061.90028157017,1.934458107275957,4.301329597586898,2.01062706775263,2.2907025298342676
San Diego Miramar Nas,CA,USA,32.867000,-117.133000,0.03064009421223515,15.039444364362547,29.477310954150592,0.0,92580.93669743113,1.9052010581167815,4.171673184810321,1.9124849723299506,2.2591882124803706
San Diego Montgomer,CA,USA,32.817000,-117.133000,0.03173723268077456,14.502168214225339,28.424249699881663,0.0,88453.08745716042,1.973421128090562,4.331196035542502,2.0017350023968126,2.329461033145689
San Diego North Island Nas,CA,USA,32.700000,-117.200000,0.03229325458052977,14.244481321448948,27.919183390039937,0.0,88590.1004078617,2.007994569817341,4.362602403697369,1.998639133802569,2.3639632698948
San Francisco Intl Ap,CA,USA,37.617000,-122.400000,0.03682788563669271,12.440832042961796,24.38403080420512,0.0,77154.11395748223,2.2899579288895526,4.947622540685522,2.2948823184711333,2.6527402222143888
San Jose Intl Ap,CA,USA,37.367000,-121.933000,0.03294832865886445,13.951711660710536,27.34535485499265,0.0,85317.76070222197,2.0487270760081913,4.481755200108804,2.075296308993756,2.4064588911150477
San Luis Co Rgnl,CA,USA,35.233000,-120.633000,0.030987153303255605,14.864463307717694,29.134348083126678,0.0,89459.90978331845,1.9267811923964335,4.261509539706444,1.9792065956109581,2.282302944095486
Sandberg,CA,USA,34.750000,-118.717000,0.024763503047477063,18.76125529477121,36.77206037775157,0.0,108318.13978444094,1.5397946194921237,3.522017304419228,1.6346262804761527,1.8873910239430753
Santa Ana John Wayne Ap,CA,USA,33.683000,-117.867000,0.035470884956496564,12.930642595278886,25.344059486746616,0.0,81747.25015763663,2.205579626594956,4.731336068970536,2.1659398263690903,2.5653962426014454
Santa Barbara Municipal Ap,CA,USA,34.433000,-119.850000,0.0316377488244655,14.548780709910222,28.515610191424035,0.0,88736.82928600503,1.967235221905265,4.318462242226359,1.9953343307146572,2.323127911511702
Santa Maria Public Arpt,CA,USA,34.917000,-120.467000,0.03017007358047579,15.282678315132383,29.95404949765947,0.0,90039.54107220053,1.8759751752339846,4.1976693090841,1.9664654289834946,2.231203880100605
Santa Monica Muni,CA,USA,34.017000,-118.450000,0.03526966361262915,13.006621466382413,25.49297807410953,0.0,81848.85175304985,2.1930676834332803,4.716073639886062,2.1632511793282325,2.55282246055783
Santa Rosa (awos),CA,USA,38.517000,-122.817000,0.03603384007311226,12.721657960308898,24.93444960220544,0.0,77818.02368818308,2.24058417574612,4.87821955390959,2.275303399964291,2.6029161539452987
South Lake Tahoe,CA,USA,38.900000,-120.000000,0.02816513097723916,16.409914665809854,32.16343274498731,0.0,91989.53818753744,1.751307844164731,4.030358069035113,1.9247802784656718,2.1055777905694417
Stockton Metropolitan Arpt,CA,USA,37.900000,-121.233000,0.031509427075467014,14.610115004410117,28.63582540864383,0.0,89628.04605569765,1.9592561755525388,4.290186270953091,1.9754937393944796,2.314692531558612
Travis Field Afb,CA,USA,38.267000,-121.933000,0.033893572693001014,13.551088182215096,26.560132837141587,0.0,84473.4299118318,2.107502350050803,4.561750589090538,2.0960393343496917,2.4657112547408464
Truckee-tahoe,CA,USA,39.317000,-120.133000,0.03298735406642563,13.934098560864868,27.31083317929514,0.0,81479.09468725594,2.0511536758503457,4.58420237502025,2.1730681321308936,2.4111342428893563
Twentynine Palms,CA,USA,34.300000,-116.167000,0.02325125809211339,20.037422062170357,39.2733472418539,0.0,113433.05845643199,1.4457632281676105,3.352582185020389,1.560917846385903,1.7916643386344864
Ukiah Municipal Ap,CA,USA,39.133000,-123.200000,0.03223719691444665,14.269310102913577,27.96784780171061,0.0,85934.41695543205,2.004508904140293,4.422302421532795,2.060404220325026,2.3618982012077683
Van Nuys Airport,CA,USA,34.217000,-118.483000,0.03004930649997573,15.344904054932158,30.07601194766703,0.0,92088.04302178016,1.8684658781684909,4.145409849620661,1.922721379718641,2.2226884699020193
Visalia Muni (awos),CA,USA,36.317000,-119.400000,0.028772005499198457,16.051476351340177,31.460893648626747,0.0,93591.31157554963,1.78904330194016,4.0343941499471985,1.8918385611016992,2.1425555888454992
Yuba Co,CA,USA,39.100000,-121.567000,0.031887315464609996,14.430847500093734,28.284461100183716,0.0,88010.61543421586,1.9827532755894495,4.350823328369604,2.011798683069554,2.339024645300049
Akron Washington Co Ap,CO,USA,40.167000,-103.233000,0.03423601566394889,13.410415937705903,26.28441523790357,0.0,80003.94861077424,2.128795453984342,4.702833598355481,2.213136016003068,2.4896975823524126
Alamosa San Luis Valley Rgnl,CO,USA,37.433000,-105.867000,0.02757457759823982,16.776413292153293,32.88177005262045,0.0,97056.86353085304,1.714587235058552,3.890833727525178,1.8242878714238766,2.0665458561013015
Aspen Pitkin Co Sar,CO,USA,39.217000,-106.867000,0.032925073271166165,13.96219909964432,27.365910235302866,0.0,80114.1646822993,2.047281056001112,4.6182044817756935,2.210091325292846,2.4081131564828477
Aurora Buckley Field Angb,CO,USA,39.717000,-104.750000,0.03723500343253983,12.300458796350712,24.108899240847396,0.0,77288.08634567146,2.315272513435327,4.968867651621152,2.2909043384025662,2.677963313218586
Broomfield Jeffco [boulder - Surfrad],CO,USA,40.130000,-105.240000,0.03572096375378506,12.838119152903543,25.162713539690944,0.0,76688.1961288824,2.2211295262103548,4.893057315745603,2.308824818705032,2.5842324970405706
Colorado Springs Muni Ap,CO,USA,38.817000,-104.717000,0.03394574211631079,13.530281043984852,26.51935084621031,0.0,81024.15274936997,2.110746244792205,4.656277108855917,2.1852696618413616,2.471007447014556
Cortez Montezuma Co,CO,USA,37.300000,-108.633000,0.02881177189224697,16.02802471429178,31.41492844001189,0.0,91307.28948881279,1.7915159762599167,4.085278941918994,1.9391622342708474,2.1461167076481464
Craig-moffat,CO,USA,40.500000,-107.533000,0.03537025768861765,12.968218355655386,25.417707977084557,0.0,74963.5733987429,2.1993226230782454,4.925589189891835,2.361941903043587,2.5636472868482483
Denver Centennial [golden - Nrel],CO,USA,39.742000,-105.179000,0.03864828736299746,11.838448992997474,23.20336002627505,0.0,71564.70866794347,2.403150508231182,5.24417408155419,2.474118840002941,2.77005524155125
Denver Intl Ap,CO,USA,39.833000,-104.650000,0.03636786288325242,12.602075269527964,24.700067528274808,0.0,77115.43651140461,2.2613537140806357,4.920195801590824,2.296033321124328,2.624162480466495
Durango La Plata Co,CO,USA,37.150000,-107.750000,0.029176214073037433,15.82064481886719,31.008463844979694,0.0,90895.94437735401,1.8141769910614676,4.116917368265861,1.947937807628928,2.168979560636933
Eagle County Ap,CO,USA,39.650000,-106.917000,0.035411682688201856,12.953811845609486,25.389471217394593,0.0,78077.71852896558,2.2018984295523913,4.831791853466619,2.2677355072475347,2.564056346219085
Fort Collins (awos),CO,USA,40.450000,-105.017000,0.03455389100586682,13.283648270146257,26.03595060948666,0.0,79169.88694818818,2.1485609427447985,4.746450896262859,2.2364515674663346,2.5099993287965243
Grand Junction Walker Field,CO,USA,39.133000,-108.533000,0.031648639148144864,14.544996936074371,28.508193994705767,0.0,86022.69582780487,1.9679123822316476,4.3835428260676625,2.058289778920836,2.325253047146827
Greeley Weld (awos),CO,USA,40.433000,-104.633000,0.03488921274027913,13.152348700752716,25.778603453475323,0.0,79067.99284718615,2.1694112481905563,4.77024957799557,2.2393336557233763,2.530915922272194
Gunnison Co. (awos),CO,USA,38.533000,-106.933000,0.02968394554593544,15.541197576697918,30.46074725032792,0.0,86375.68497974747,1.8457477340462656,4.252773165437549,2.0498782320540405,2.202894933383509
Hayden Yampa (awos),CO,USA,40.483000,-107.217000,0.03508888526527378,13.075340889561023,25.627668143539605,0.0,75743.48474699068,2.181826885794724,4.8832138047524,2.337621621659508,2.5455921830928925
La Junta Municipal Ap,CO,USA,38.050000,-103.533000,0.03279763648133861,14.017209110830184,27.47372985722716,0.0,82347.59909359024,2.0393570364096347,4.548959693832453,2.1501492252422465,2.3988104685902063
Lamar Municipal,CO,USA,38.067000,-102.683000,0.031872612044804405,14.437930332404644,28.2983434515131,0.0,86504.17681065164,1.981839016945938,4.385749566078603,2.0468333813613544,2.338916184717249
Leadville Lake Co.,CO,USA,39.217000,-106.317000,0.03680890798726563,12.447419059076736,24.396941355790403,0.0,71582.94655715683,2.288777898648177,5.129156619177866,2.4734884853662655,2.6556681338116013
Limon,CO,USA,39.183000,-103.717000,0.0345352651339264,13.291036164677202,26.050430882767316,0.0,80017.48109034117,2.1474027860275435,4.72105803892021,2.2127617330329095,2.5082963058873005
Montrose Co. Arpt,CO,USA,38.500000,-107.900000,0.0364409473777186,12.576206878835592,24.64936548251776,0.0,74580.95717788617,2.265898107946543,5.004560621095026,2.374059152637813,2.6305014684572128
Pueblo Memorial Ap,CO,USA,38.283000,-104.500000,0.030168599437613023,15.283311720241977,29.955290971674277,0.0,89850.24631893016,1.8758835130307778,4.201815840280514,1.9706083355324895,2.231207504748025
Rifle Garfield Rgnl,CO,USA,39.533000,-107.717000,0.034648859858912175,13.246179781927083,25.96251237257708,0.0,77218.1729335366,2.154466106027159,4.8101831348814565,2.2929785228292254,2.517204612052231
Trinidad Las Animas County Ap,CO,USA,37.267000,-104.333000,0.030068477887744267,15.334671019054884,30.055955197347572,0.0,90204.53293956968,1.8696579550599386,4.1876725309882135,1.9628685981703566,2.224803932817857
Bridgeport Sikorsky Memorial,CT,USA,41.183000,-73.150000,0.052810252210291654,8.601709463529119,16.85935054851707,0.0,57160.83726759892,3.283741482435935,6.762552674438355,3.097567147607449,3.6649855268309066
Danbury Municipal,CT,USA,41.367000,-73.483000,0.054977392027691765,8.255442902109293,16.18066808813421,0.0,54733.19798241473,3.418494236281874,7.037854798057481,3.2349565608754713,3.80289823718201
Groton New London Ap,CT,USA,41.333000,-72.050000,0.06858292535066347,6.592507580170171,12.921314857133535,0.0,44097.98752556533,4.264486298304255,8.681970951780588,4.015136513662105,4.6668344381184825
Hartford Bradley Intl Ap,CT,USA,41.933000,-72.683000,0.06074925290481291,7.458390043539493,14.618444485337406,0.0,49868.140938806726,3.7773885456212666,7.719604447946413,3.5505531792034675,4.169051268742946
Hartford Brainard Fd,CT,USA,41.733000,-72.650000,0.05869273866430624,7.723201256307945,15.137474462363572,0.0,50742.96068725249,3.6495144901465624,7.529110318732819,3.4893409859103186,4.0397693328225
New Haven Tweed Airport,CT,USA,41.267000,-72.883000,0.05692416124481051,7.967694520283327,15.616681259755321,0.0,53160.08154133909,3.5395443462023177,7.256835527442197,3.330685416656774,3.9261501107854233
Oxford (awos),CT,USA,41.483000,-73.133000,0.05562793310877808,8.156642387687391,15.987019079867288,0.0,53627.967405210824,3.4589448807038212,7.146508655103714,3.3016263679373337,3.84488228716638
Dover Afb,DE,USA,39.133000,-75.467000,0.056385707858552805,8.045464124106106,15.769109683247967,0.0,54404.39420533211,3.5060633146448135,7.145424618424074,3.2545076283277226,3.8909169900963514
Wilmington New Castle Cnty Ap,DE,USA,39.667000,-75.600000,0.04963028137755263,9.164517543824573,17.962454385896162,0.0,59917.086167663954,3.086010896056223,6.419053688020124,2.955076042975466,3.4639776450446584
Crestview Bob Sikes Ap,FL,USA,30.783000,-86.517000,0.04761376019222671,9.560035094224824,18.737668784680654,0.0,62025.35477214458,2.9606236087526567,6.190912035888246,2.8546318935831763,3.33628014230507
Daytona Beach Intl Ap,FL,USA,29.183000,-81.067000,0.03756706524246408,12.189230122352598,23.89089103981109,0.0,78287.09513964354,2.3359201167764163,4.959609059595532,2.2616705208398007,2.6979385387557318
Fort Lauderdale,FL,USA,26.200000,-80.167000,0.046538000491830475,9.787063616136114,19.182644687626784,0.0,65124.82153194615,2.893732870582019,5.985037070235661,2.718772433679024,3.2662646365566363
Fort Lauderdale Hollywood Int,FL,USA,26.067000,-80.150000,0.03783360451591413,12.10143697399307,23.718816469026418,0.0,78906.78626142636,2.3524935287995405,4.958012036003167,2.243908609192205,2.7141034268109614
Fort Myers Page Field,FL,USA,26.583000,-81.867000,0.039196616738221286,11.669029006646614,22.871296853027363,0.0,76613.06086267375,2.4372456287825996,5.111489783694685,2.311089105485909,2.8004006782087756
Gainesville Regional Ap,FL,USA,29.700000,-82.283000,0.043051594806129335,10.598422073329571,20.77290726372596,0.0,70240.0314683164,2.676948165045122,5.565704980735594,2.520778900968203,3.0449260797673907
Homestead Afb,FL,USA,25.483000,-80.383000,0.03763604241883423,12.167569370471803,23.848435966124732,0.0,79530.84794051631,2.340209117603113,4.927715201076306,2.2263011568652913,2.7014140442110146
Jacksonville Craig,FL,USA,30.333000,-81.517000,0.05007511169882386,9.081239166508452,17.799228766356563,0.0,59763.66532998035,3.1136704454328674,6.454473755077268,2.962662081763832,3.491811673313436
Jacksonville Intl Arpt,FL,USA,30.500000,-81.700000,0.041863066859430156,10.907560081517698,21.378817759774687,0.0,71346.90881063657,2.6030454973193673,5.451795485278387,2.4816715424819358,2.9701239427964516
Jacksonville Nas,FL,USA,30.233000,-81.667000,0.04346625934295381,10.495204417176975,20.57060065766687,0.0,69808.3088078154,2.702732005944868,5.607436868185433,2.536368389286965,3.0710684788984683
Key West Intl Arpt,FL,USA,24.550000,-81.750000,0.03289810471261796,13.97563261824811,27.392239931766294,0.0,90417.93116720654,2.045604151030585,4.358879553300238,1.9582359748481457,2.400643578452092
Key West Nas,FL,USA,24.583000,-81.683000,0.03388545939565217,13.555120957789303,26.568037077267032,0.0,86113.54464504465,2.106997865221652,4.520406895295016,2.0561183089671204,2.464288586327896
Lakeland Linder Rgn,FL,USA,27.983000,-82.017000,0.04520160512556225,10.083442777810138,19.76354784450787,0.0,67015.73160819602,2.8106358067074604,5.8234630851615155,2.642059900737102,3.1814031844244135
Macdill Afb,FL,USA,27.850000,-82.517000,0.03918020467513203,11.674568294897895,22.882153857999874,0.0,76334.24791347675,2.4362251266997097,5.119104737385911,2.3195304112279578,2.799574326157953
Marathon Airport,FL,USA,24.733000,-81.050000,0.03683569772260643,12.438206820784735,24.378885368738082,0.0,78140.90501147162,2.2904436843916676,4.91846119302653,2.265901767971517,2.6525594250550126
Mayport Ns,FL,USA,30.400000,-81.417000,0.041727989147522966,10.943482725290592,21.449226141569557,0.0,71417.11181340787,2.594646365192978,5.440900766053106,2.4792320634018856,2.961668702651221
Melbourne Regional Ap,FL,USA,28.117000,-80.650000,0.03970125409086269,11.516832324300905,22.572991355629775,0.0,75055.51228152475,2.468623979369842,5.191930756210329,2.3590486577130854,2.8328820984972434
Miami Intl Ap,FL,USA,25.817000,-80.300000,0.04245714256359897,10.75174813255169,21.073426339801312,0.0,71092.76009726798,2.639985124604584,5.497810848750353,2.4905432298590124,3.007267618891341
Miami Kendall-tamia,FL,USA,25.650000,-80.433000,0.04068765237142801,11.230640919071423,22.012056201379988,0.0,74035.40889739602,2.5299582244553935,5.286516915771237,2.3915529729382636,2.8949639428329736
Miami Opa Locka,FL,USA,25.900000,-80.283000,0.038038575518748806,12.034348766171945,23.58732358169701,0.0,78905.5348631681,2.3652386257558007,4.970793538570593,2.243944196299895,2.7268493422706985
Naples Municipal,FL,USA,26.150000,-81.767000,0.034040288181355335,13.491255970901609,26.442861702967154,0.0,87388.05018028693,2.1166251191166747,4.499357147260413,2.026131014803263,2.4732261324571496
Nasa Shuttle Fclty,FL,USA,28.617000,-80.717000,0.03859636075759939,11.854969144329381,23.235739522885588,0.0,76488.42177757989,2.39992171190753,5.078018434780905,2.3148550565722137,2.7631633782086906
Ocala Muni (awos),FL,USA,29.167000,-82.217000,0.03473014436301355,13.215253512116739,25.901896883748808,0.0,84635.47116938872,2.1595203764921824,4.609663288701041,2.0920263071445344,2.5176369815565067
Orlando Executive Ap,FL,USA,28.550000,-81.333000,0.04153187611110025,10.996124483864467,21.552403988374355,0.0,72464.18551474084,2.5824520565882136,5.392058814210483,2.4434083652221594,2.948650448988323
Orlando Intl Arpt,FL,USA,28.433000,-81.333000,0.04446638250415312,10.25333586703756,20.096538299393618,0.0,67853.39663243106,2.764919664108241,5.744379997746261,2.609443141386139,3.1349368563601225
Orlando Sanford Airport,FL,USA,28.783000,-81.250000,0.034023861729155266,13.49772617667601,26.45554330628498,0.0,86973.18008118545,2.1156037223188746,4.508222862241358,2.0357958357013524,2.472427026540006
Panama City Bay Co,FL,USA,30.200000,-85.683000,0.03891090641641971,11.756339270453196,23.042424970088266,0.0,76508.59590112853,2.4194801609729777,5.09695245448836,2.3142446661929448,2.7827077882954154
Pensacola Forest Sherman Nas,FL,USA,30.350000,-87.317000,0.038177881295659244,11.988745143895313,23.497940482034814,0.0,78530.77874697646,2.3739006589640916,4.990410157508185,2.2546524912454484,2.735757666262737
Pensacola Regional Ap,FL,USA,30.483000,-87.183000,0.044004152516546526,10.36313262926217,20.311739953353854,0.0,68534.99968182937,2.736178203478863,5.689089917327863,2.5834914113870964,3.1055985059407663
Sarasota Bradenton,FL,USA,27.383000,-82.550000,0.03686288788325144,12.428533497917384,24.359925655918072,0.0,80117.162314754,2.2921343685805744,4.862973200632869,2.2100086334822033,2.652964567150665
Southwest Florida I,FL,USA,26.533000,-81.750000,0.04276561184143966,10.671603340023708,20.91634254644647,0.0,69880.14984145352,2.659165744300718,5.561203096340444,2.5337608524337503,3.027442243906694
St Lucie Co Intl,FL,USA,27.483000,-80.367000,0.04704059565250667,9.679694562260675,18.97220134203092,0.0,63813.764666045914,2.9249842376728648,6.073430376405042,2.7746296566296937,3.298800719775348
St Petersburg Albert Whitted,FL,USA,27.767000,-82.633000,0.035621179399291505,12.874484656482156,25.233989926705025,0.0,83455.06167161433,2.2149249350479456,4.695338533569849,2.1216164208425257,2.573722112727324
St Petersburg Clear,FL,USA,27.900000,-82.683000,0.03692792964156875,12.406352728630164,24.316451348115123,0.0,80431.21307735427,2.2961786651127447,4.858189863596015,2.2013794706581327,2.656810392937882
Tallahassee Regional Ap [isis],FL,USA,30.380000,-84.370000,0.04070124008699734,11.22619140010594,22.00333514420764,0.0,72274.05887352633,2.5308031086094944,5.346985409200246,2.4498360709587015,2.8971493382415447
Tampa International Ap,FL,USA,27.967000,-82.533000,0.03515328217541744,13.051472978516104,25.580887037891564,0.0,84589.93955709007,2.185831085667456,4.63712595569372,2.093152365617071,2.5439735900766487
Tyndall Afb,FL,USA,30.067000,-85.583000,0.042626224699309385,10.707314284305042,20.98633599723788,0.0,70611.6441414213,2.6504986518030575,5.525684088890461,2.507512646224246,3.0181714426662154
Valparaiso Elgin Afb,FL,USA,30.483000,-86.517000,0.04107676551209192,11.121298299172903,21.79774466637889,0.0,74173.1806221422,2.5541532795418753,5.306167657760494,2.38711082914821,2.9190568286122844
Valparaiso Hurlburt,FL,USA,30.417000,-86.683000,0.03855578850591868,11.867930491055358,23.2611437624685,0.0,77937.08050366926,2.397398929298024,5.031478612298464,2.2718276471167544,2.7596509651817094
Vero Beach Municipal Arpt,FL,USA,27.650000,-80.417000,0.047728928580621846,9.537731628721488,18.693953992294116,0.0,64141.32913897525,2.9677847791430665,6.101735230363237,2.7604598741155133,3.3412753562477233
West Palm Beach Intl Arpt,FL,USA,26.683000,-80.100000,0.038547287501476894,11.872066375973947,23.269250096908937,0.0,78327.95694388216,2.3968703368418334,5.019352285534716,2.260490663433903,2.7588616221008135
Whiting Field Naas,FL,USA,30.717000,-87.017000,0.04540155099190002,10.037182707948757,19.672878107579564,0.0,66247.53691496502,2.823068440676343,5.86723717776527,2.6726967126968986,3.1945404650683717
Albany Dougherty County Ap,GA,USA,31.533000,-84.183000,0.044902855498172974,10.150817959140841,19.89560319991605,0.0,66009.48677420767,2.7920595548763956,5.846088515071168,2.682335249457256,3.1637532656139125
Alma Bacon County Ap,GA,USA,31.533000,-82.500000,0.03991692993566974,11.452765224901821,22.44741984080757,0.0,75185.72954048001,2.4820347033999446,5.2011617804829235,2.3549629296998815,2.8461988507830416
Athens Ben Epps Ap,GA,USA,33.950000,-83.333000,0.041173124320395986,11.094295281997974,21.74481875271603,0.0,71369.15033644435,2.5601448702422225,5.408103681705615,2.4808981539231607,2.927205527782455
Atlanta Hartsfield Intl Ap,GA,USA,33.633000,-84.433000,0.04142812116123921,11.02471786677017,21.60844701886953,0.0,71133.64016307288,2.576000573805854,5.432362080225637,2.489111931984148,2.9432501482414892
Augusta Bush Field,GA,USA,33.367000,-81.967000,0.04004775759760482,11.414546139125374,22.372510432685733,0.0,73993.84465775573,2.490169567419068,5.2481025516207715,2.392896367743601,2.855206183877171
Brunswick Golden Is,GA,USA,31.250000,-81.467000,0.04168606657941989,10.954693862547263,21.471199970592636,0.0,72297.54399887784,2.5920396199083284,5.407407813673082,2.449040267609729,2.9583675460633523
Brunswick Malcolm Mckinnon Ap,GA,USA,31.150000,-81.383000,0.04426417372772918,10.301189275591165,20.190330980158684,0.0,67735.6678933993,2.7523463223902005,5.736446334720121,2.6139785066763643,3.1224678280437566
Columbus Metropolitan Arpt,GA,USA,32.517000,-84.950000,0.043538980238555666,10.477138662686416,20.535191778865375,0.0,68452.399505631,2.7072537912333914,5.663354650472513,2.5866088555612134,3.0767457949112993
Dekalb Peachtree,GA,USA,33.867000,-84.300000,0.054909508777053924,8.265460233415315,16.200302057494017,0.0,54298.222539669245,3.414273255757213,7.060144591866799,3.260871296294806,3.7992732955719934
Fort Benning Lawson,GA,USA,32.350000,-85.000000,0.04478788162251858,10.177520172586865,19.947939538270255,0.0,66993.0644732601,2.784910479288205,5.798652259260601,2.6429538416152445,3.155698417645356
Fulton Co Arpt Brow,GA,USA,33.767000,-84.517000,0.055975892500933926,8.104904484855556,15.88561279031689,0.0,53797.217082789415,3.4805809957080713,7.157518746157018,3.2912392477506818,3.866279498406337
Hunter Aaf,GA,USA,32.000000,-81.150000,0.041322488708405984,11.053608285849817,21.66507224026564,0.0,71850.62208916603,2.569432347888684,5.4003842950957335,2.464273653183822,2.936110641911912
Macon Middle Ga Regional Ap,GA,USA,32.683000,-83.650000,0.039999887964433684,11.428377857095665,22.399620599907504,0.0,73711.29779369158,2.4871930336284866,5.2545093127998665,2.402068699092258,2.852440613707609
Marietta Dobbins Afb,GA,USA,33.917000,-84.517000,0.04988777098779236,9.115292700379301,17.86597369274343,0.0,59971.68175746923,3.102021600020929,6.4323123509515785,2.9523858757875354,3.4799264751640426
Moody Afb Valdosta,GA,USA,30.967000,-83.200000,0.04614344372916912,9.872816536500673,19.35072041154132,0.0,65448.09487292319,2.8691993310797357,5.946765619357192,2.7053433903005444,3.2414222290566483
Rome R B Russell Ap,GA,USA,34.350000,-85.167000,0.04544842762900823,10.025590810922226,19.650157989407564,0.0,64379.51813273238,2.8259832299717313,5.949485748509087,2.7502468411899854,3.199238907319101
Savannah Intl Ap,GA,USA,32.117000,-81.200000,0.0414021179559476,11.031588618877004,21.621913692998927,0.0,71352.43415142206,2.574383694500822,5.422937088757608,2.481479368774962,2.9414577199826457
Valdosta Wb Airport,GA,USA,30.783000,-83.283000,0.0462594465122454,9.846853915444104,19.29983367427044,0.0,64861.54345088707,2.876412384131419,5.979006097796232,2.729808126749573,3.249197971046659
Warner Robins Afb,GA,USA,32.633000,-83.600000,0.043806730963743545,10.410949323212426,20.405460673496354,0.0,68451.59782388229,2.7239025313255736,5.6800343807494755,2.586639148996971,3.093395231752504
Andersen Afb,GU,USA,13.567000,144.917000,0.035905847640692344,12.770451044202332,25.03008404663657,0.0,80349.62734693445,2.23262560629825,4.796923458197885,2.2036147134893795,2.5933087447085055
Guam Wfo,GU,USA,13.483000,144.800000,0.043929010436477206,10.382441067219908,20.34958449175102,0.0,68273.24083087807,2.7315058689401526,5.694550462255188,2.593396474403749,3.101153987851439
Barbers Point Nas,HI,USA,21.317000,-158.067000,0.034075117987425005,13.477911639105372,26.416706812646527,0.0,88369.01817462889,2.118790836458087,4.4785138788559395,2.0036393376323094,2.47487454122363
Hilo International Ap,HI,USA,19.717000,-155.050000,0.046517494950282914,9.79248000198989,19.193260803900184,0.0,62231.17156500935,2.8924578360085915,6.113088025682565,2.845190801245331,3.267897224437234
Honolulu Intl Arpt,HI,USA,21.317000,-157.933000,0.03305787816586358,13.905944324367146,27.255650875759606,0.0,87772.40876935844,2.055538864353397,4.429194333457971,2.0172585230738744,2.4119358103840964
Kahului Airport,HI,USA,20.900000,-156.433000,0.027546711534561893,16.794100432094456,32.916436846905135,0.0,98590.82392018788,1.7128545232190584,3.8600643855137595,1.7959040687142727,2.064160316799487
Kaneohe Bay Mcas,HI,USA,21.450000,-157.783000,0.03950990161361088,11.575258097541298,22.687505871180942,0.0,76800.45005590525,2.456725682334324,5.125201209229177,2.305450172917745,2.819751036311432
Kapalua,HI,USA,20.950000,-156.633000,0.0293919984712608,15.70214835334925,30.77621077256453,0.0,93265.85825839483,1.8275944649429965,4.0796987561688045,1.8984401673761566,2.181258588792648
Kona Intl At Keahol,HI,USA,19.733000,-156.050000,0.03676035101970851,12.46569142380492,24.43275519065764,0.0,80438.89982041706,2.285758626405475,4.847554622915872,2.2011691070482864,2.6463855158675855
Lanai,HI,USA,20.783000,-156.950000,0.0331458208838818,13.867710038929213,27.180711676301257,0.0,86922.53189916804,2.0610071425597702,4.454839785467231,2.0369820556280165,2.4178577298392145
Lihue Airport,HI,USA,21.983000,-159.333000,0.03576281412967973,12.823508448765677,25.134076559580727,0.0,79270.14039779334,2.2237317825834855,4.818728230808688,2.2336231165446745,2.585105114264013
Molokai (amos),HI,USA,21.150000,-157.100000,0.031604304287987973,14.566660496846275,28.550654573818697,0.0,91081.69325611817,1.9651556406270922,4.263832095970693,1.9439652544903225,2.31986684148037
Algona,IA,USA,43.083000,-94.267000,0.05527980987407095,8.209069413779872,16.08977605100855,0.0,53480.56908126632,3.4372985779697314,7.1341712717962995,3.3107259959203987,3.8234452758759003
Atlantic,IA,USA,41.400000,-95.050000,0.0547049713563611,8.296725725990273,16.261582422940933,0.0,53460.14219106589,3.401555118938533,7.09972191982119,3.3119910077054313,3.7877309121157583
Boone Muni,IA,USA,42.050000,-93.850000,0.06226556353383809,7.2724639811175855,14.254029402990467,0.0,47460.95031022914,3.871672740534052,7.998112043392817,3.730634704651775,4.267477338741042
Burlington Municipal Ap,IA,USA,40.783000,-91.117000,0.04599735423321061,9.903483647729166,19.410827949549166,0.0,64003.723563642336,2.8601154862210354,6.000137314195212,2.76639474875286,3.2337425654423515
Carroll,IA,USA,42.050000,-94.783000,0.04991157017439236,9.110213460996356,17.856018383552858,0.0,58836.84746767405,3.1035014334437165,6.492046897727578,3.0093308546274296,3.482716043100148
Cedar Rapids Municipal Ap,IA,USA,41.883000,-91.717000,0.059758560559433634,7.582670459617189,14.86203410084969,0.0,49106.76207209365,3.7157872955855833,7.714319002070839,3.6056028411390586,4.108716160931781
Chariton,IA,USA,41.033000,-93.367000,0.05593231237570945,8.111277984540699,15.898104849699768,0.0,52994.89659250271,3.4778711835216134,7.205782862084506,3.341067134470081,3.864715727614425
Charles City,IA,USA,43.067000,-92.617000,0.06194047594491308,7.3107136041748735,14.328998664182752,0.0,47932.077013088434,3.8514587942546954,7.9403862089109385,3.6939661922348423,4.246420016676097
Clarinda,IA,USA,40.717000,-95.033000,0.04859159691985502,9.363301904677254,18.352071733167417,0.0,60344.7882334913,3.021425496476585,6.3330420883917835,2.9341315658995097,3.3989105224922738
Clinton Muni (awos),IA,USA,41.833000,-90.333000,0.05240720977362127,8.667961876690912,16.989205278314188,0.0,56470.3174276039,3.2586803037237706,6.7762396951720545,3.135444175413767,3.6407955197582873
Council Bluffs,IA,USA,41.267000,-95.767000,0.05224890182973116,8.694726384090487,17.041663712817353,0.0,55747.916746595314,3.2488367157726836,6.807960690572702,3.176074266666684,3.6318864239060176
Creston,IA,USA,41.017000,-94.367000,0.05030289174874623,9.038236609656009,17.714943754925777,0.0,57973.78377343875,3.1278338089370403,6.5622099239956455,3.054131099764033,3.508078824231613
Decorah,IA,USA,43.283000,-91.733000,0.0526023846251467,8.635606697966677,16.92578912801469,0.0,56253.86827062482,3.270816275991622,6.800717437231137,3.14750846650979,3.653208970721347
Denison,IA,USA,41.983000,-95.383000,0.04947843450681244,9.191516961640056,18.015373244814512,0.0,58799.492274919314,3.0765690576335976,6.467070311996492,3.011242672886505,3.4558276391099874
Des Moines Intl Ap,IA,USA,41.533000,-93.667000,0.044076298376016204,10.346539164776773,20.279216762962477,0.0,66713.36208989855,2.7406642330206874,5.765741701415809,2.6540346709629734,3.111707030452836
Dubuque Regional Ap,IA,USA,42.400000,-90.700000,0.05432304190114403,8.355792907250102,16.377354098210198,0.0,54723.21739064993,3.3778067454131357,6.997770877628996,3.2355465613058265,3.7622243163231697
Estherville Muni,IA,USA,43.400000,-94.750000,0.05337136779938132,8.508229290740022,16.676129409850443,0.0,53719.65549660941,3.3186316497655306,7.000430647814733,3.2959912004391025,3.70443944737563
Fair Field,IA,USA,41.050000,-91.983000,0.054092786668453595,8.392553745763099,16.449405341695673,0.0,55094.77688728764,3.3634894750444446,6.961131230365426,3.21372605603224,3.747405174333186
Fort Dodge (awos),IA,USA,42.550000,-94.183000,0.050106910690550836,9.074307189545136,17.785642091508468,0.0,58695.411517412336,3.115647706738451,6.511611404408619,3.0165823046629208,3.495029099745698
Fort Madison,IA,USA,40.667000,-91.333000,0.04926026165944351,9.233352599594465,18.09737109520515,0.0,59492.36192987744,3.0630030699841977,6.41762774818986,2.976172705968389,3.4414550422214707
Keokuk Muni,IA,USA,40.467000,-91.433000,0.042918369069743355,10.631431979234316,20.83760667929926,0.0,67979.92083258087,2.6686641887566416,5.643156131249608,2.60458645404982,3.0385696771997877
Knoxville,IA,USA,41.300000,-93.117000,0.048449596124963815,9.391021468509331,18.40640207827829,0.0,59916.26011878316,3.01259588705025,6.345680356798148,2.9551167837222856,3.3905635730758625
Le Mars,IA,USA,42.783000,-96.200000,0.04687831477705811,9.712917265080705,19.03731783955818,0.0,60807.91704911994,2.9148936128374734,6.203649154439816,2.911784498145007,3.2918646562948086
Mason City Municipal Arpt,IA,USA,43.150000,-93.333000,0.0512693934669467,8.865210106233393,17.37581180821745,0.0,57589.03696159869,3.1879308857747457,6.643180620628342,3.0745354201892434,3.5686452004390983
Monticello Muni,IA,USA,42.233000,-91.167000,0.05710601133821227,7.941403844341472,15.565151534909283,0.0,52251.182808231904,3.550851785010039,7.327411992224308,3.3886219034352574,3.93879008878905
Muscatine,IA,USA,41.367000,-91.150000,0.049768553070831306,9.137090465166752,17.908697311726833,0.0,59112.724510496635,3.0946086299442905,6.468786653221661,2.9952864352662476,3.473500217955414
Newton Muni,IA,USA,41.683000,-93.017000,0.06173151998965355,7.3359233103575185,14.378409688300737,0.0,48100.41625682155,3.838465912956658,7.914168068663308,3.6810382753730706,4.233129793290238
Oelwen,IA,USA,42.683000,-91.967000,0.058104068606434175,7.802698750780987,15.293289551530734,0.0,51173.02649280032,3.612910985948077,7.462507453332177,3.4600160971496576,4.002491356182519
Ottumwa Industrial Ap,IA,USA,41.100000,-92.450000,0.05886484524902492,7.700034998481584,15.092068597023905,0.0,49889.90915068125,3.6602160775843693,7.600847156681743,3.5490039873874624,4.051843169294281
Red Oak,IA,USA,41.017000,-95.267000,0.04823156292381933,9.434765723692937,18.492140818438155,0.0,60240.52198980576,2.999038582603086,6.31585046096596,2.9392100472755365,3.3766404136904233
Sheldon,IA,USA,43.217000,-95.833000,0.05488768034677617,8.26808922411143,16.2054548792584,0.0,53253.80951912642,3.412915963962542,7.1242102425330405,3.3248233417111424,3.7993869008218986
Shenandoah Muni,IA,USA,40.750000,-95.417000,0.04982060414319068,9.127441512606252,17.889785364708253,0.0,59260.502486358884,3.0978451656235966,6.464382057914057,2.987817099013158,3.4765649589008993
Sioux City Sioux Gateway Ap,IA,USA,42.383000,-96.383000,0.04335006475524089,10.52414991846848,20.62733384019822,0.0,66544.3788005058,2.6955070264808785,5.72747917238848,2.660774336175564,3.0667048362129163
Spencer,IA,USA,43.167000,-95.150000,0.061832125051959876,7.324277725105973,14.355584341207706,0.0,48214.36038432525,3.844721535730865,7.911524293971475,3.672338962112033,4.239185331859441
Storm Lake,IA,USA,42.600000,-95.233000,0.05110562403578083,8.892727307292395,17.429745522293093,0.0,55934.4203360072,3.177747702544852,6.726038058318475,3.1654842187425447,3.5605538395759306
Washington,IA,USA,41.283000,-91.667000,0.05887284996849739,7.698957856276887,15.089957398302698,0.0,50181.46937175103,3.660713811041168,7.580250539896074,3.5283838991739054,4.051866640722168
Waterloo Municipal Ap,IA,USA,42.550000,-92.400000,0.04932881167838713,9.22125594644532,18.073661655032826,0.0,60023.77198304532,3.067265510162112,6.394935176825391,2.949823721078474,3.445111455746917
Webster City,IA,USA,42.433000,-93.867000,0.05148260382593593,8.826143251624368,17.29924077318376,0.0,56502.24744951289,3.201188305896696,6.7169350745732475,3.1336723056466775,3.58326276892657
Boise Air Terminal [uo],ID,USA,43.620000,-116.210000,0.03644878412937804,12.57350064059874,24.64406125557353,0.0,74316.76531648672,2.2663853971647265,5.0136816553901475,2.382498786144107,2.631182869246041
Burley Municipal Arpt,ID,USA,42.533000,-113.767000,0.033544772138334164,13.695443641055345,26.843069536468477,0.0,80590.80892011573,2.0858139315616184,4.643365425719101,2.197020033389524,2.4463453923295773
Caldwell (awos),ID,USA,43.633000,-116.633000,0.03224606832011999,14.26550900734725,27.96039765440061,0.0,83806.03960869728,2.005060528145061,4.476384490860056,2.1127311463489686,2.363653344511087
Coeur D`alene(awos),ID,USA,47.767000,-116.817000,0.047140013144672,9.657934871124597,18.92955234740421,0.0,61245.14986029349,2.931166017335705,6.198656078558352,2.8909971272948654,3.307658951263487
Hailey Friedman Mem,ID,USA,43.500000,-114.300000,0.036742362050084645,12.469961668841792,24.44112487092991,0.0,72143.9777747245,2.284640072274263,5.105341204590559,2.454253306272039,2.65108789831852
Idaho Falls Fanning Field,ID,USA,43.517000,-112.067000,0.03609277671127903,12.70056383615331,24.89310511886049,0.0,74500.17432055133,2.24424885590733,4.985544839859826,2.376633415398334,2.608911424461492
Joslin Fld Magic Va [twin Falls - Uo],ID,USA,42.550000,-114.350000,0.032620937282426946,14.09631394213213,27.628775326578975,0.0,82872.20171079268,2.0283698802213075,4.524048496835938,2.1365382371599524,2.3875102596759863
Lewiston Nez Perce Cnty Ap,ID,USA,46.367000,-117.017000,0.045943146318167365,9.915672619201382,19.43471833363471,0.0,61780.018582365796,2.856744838063647,6.098630077445773,2.865967975935608,3.2326621015101655
Malad City,ID,USA,42.150000,-112.283000,0.03700766091021699,12.377389915313342,24.259684234014152,0.0,72888.73050047588,2.3011363553972926,5.0961840165438534,2.429176599361252,2.6670074171826013
Mountain Home Afb,ID,USA,43.050000,-115.867000,0.03465888604867154,13.242513981434916,25.955327403612436,0.0,79352.86682468874,2.1550895345063963,4.74770384632014,2.2312945374523396,2.5164093088678
Pocatello Regional Ap,ID,USA,42.917000,-112.567000,0.035964048580408074,12.748784730136778,24.987618071068084,0.0,76371.65082296032,2.236244540729774,4.917962038457485,2.318394425931291,2.5995676125261937
Salmon Lemhi (awos),ID,USA,45.117000,-113.883000,0.04086538037265224,11.180395223031343,21.913574637141433,0.0,68027.86432038208,2.541009351571516,5.513623462819382,2.6027508418845224,2.91087262093486
Soda Springs Tigert,ID,USA,42.650000,-111.583000,0.03953448594600525,11.565073690480435,22.667544433341654,0.0,68368.34514793578,2.4582543361226064,5.4176083965664485,2.5897889153898745,2.8278194811765736
Aurora Municipal,IL,USA,41.767000,-88.467000,0.05447991021968093,8.331974322681614,16.33066967245596,0.0,55364.41924252075,3.3875608174597605,6.969190739241933,3.1980742148408328,3.7711165244010996
Belleville Scott Afb,IL,USA,38.550000,-89.850000,0.04950255597047875,9.187422962681087,18.00734900685493,0.0,59952.0435137383,3.0780689302443687,6.409349023714395,2.953352975044014,3.455996048670381
Cahokia St. Louis,IL,USA,38.567000,-90.150000,0.047738130385537036,9.534362643994761,18.687350782229732,0.0,61323.402902704256,2.9683569473726927,6.232073046179046,2.8873080144734637,3.3447650317055824
Central Illinois Rg,IL,USA,40.467000,-88.917000,0.05404281786458803,8.400576808442487,16.465130544547275,0.0,55842.01964153256,3.360382414820084,6.914031096525903,3.170722074003733,3.7433090225221703
Chicago Midway Ap,IL,USA,41.783000,-87.750000,0.05496412512882763,8.257309590806969,16.184326797981658,0.0,54596.31290271051,3.4176693005105023,7.045327148869312,3.2430673004484944,3.802259848420818
Chicago Ohare Intl Ap,IL,USA,41.983000,-87.917000,0.05514516618226217,8.230766931654339,16.132303186042503,0.0,54156.03636740954,3.428926433213062,7.08355605246926,3.2694326678946215,3.8141233845746383
Chicago Waukegan,IL,USA,42.417000,-87.867000,0.06772630674752964,6.67744624364047,13.087794637535321,0.0,44483.606982144236,4.211221753561393,8.593099527408391,3.9803301797135875,4.612769347694805
Decatur,IL,USA,39.833000,-88.867000,0.05923932012344579,7.650447584702064,14.994877266016045,0.0,50112.107969913945,3.6835009252758595,7.608033692773607,3.5332676124122653,4.074766080361342
Marion Regional,IL,USA,37.750000,-89.017000,0.057152600343450204,7.934915726974124,15.552434824869282,0.0,51406.11890996898,3.5537486893557335,7.387295481936301,3.4443272654746506,3.9429682164616504
Moline Quad City Intl Ap,IL,USA,41.467000,-90.517000,0.04803261964242156,9.475732960816707,18.572436603200746,0.0,61377.97907921081,2.9866682893657726,6.247758002114155,2.884740677173394,3.3630173249407607
Mount Vernon (awos),IL,USA,38.317000,-88.867000,0.04652091566212246,9.789180618115678,19.186794011506727,0.0,62712.66148319271,2.8926705358707743,6.090953773206128,2.823346273055087,3.2676075001510414
Peoria Greater Peoria Ap,IL,USA,40.667000,-89.683000,0.04804735413726985,9.473053990744381,18.567185821858985,0.0,61603.620432502685,2.987584480255439,6.2378649777194966,2.874174484324592,3.3636904933949046
Quincy Muni Baldwin Fld,IL,USA,39.933000,-91.200000,0.05623109396551025,8.06739341050114,15.812091084582233,0.0,52909.43927541477,3.4964494227754273,7.229881572052932,3.3464634890298184,3.883418083023113
Rockford Greater Rockford Ap,IL,USA,42.200000,-89.100000,0.05342893937684076,8.50011133944942,16.660218225320865,0.0,55245.115326596795,3.3222114504519586,6.910906567994798,3.2049805645580047,3.705926003436793
Southern Illinois,IL,USA,37.767000,-89.250000,0.05727516513818105,7.9177801757241495,15.518849144419333,0.0,52722.232595091155,3.561369768292098,7.306957854843876,3.358346125661563,3.9486117291823137
Springfield Capital Ap,IL,USA,39.850000,-89.683000,0.04624504135129754,9.849972761908804,19.305946613341256,0.0,64117.428850505865,2.875516671223681,6.010519771097307,2.761488856181453,3.249030914915854
Sterling Rockfalls,IL,USA,41.750000,-89.667000,0.05084464849446802,8.940329492832134,17.523045805950982,0.0,58558.422234987826,3.1615202433860214,6.564703111492826,3.0236391672598284,3.541063944232998
Univ Of Illinois Wi [bondville - Surfrad],IL,USA,40.060000,-88.370000,0.058303762646702686,7.775682223122174,15.24033715731946,0.0,52043.576401474034,3.625327961371973,7.415716555783138,3.4021393884762117,4.013577167306926
W. Chicago Du Page,IL,USA,41.917000,-88.250000,0.0533433563900544,8.513030760380389,16.68554029034556,0.0,56657.47077263743,3.3168899003335826,6.823853965132367,3.1250870623644023,3.698766902767964
Delaware Co Johnson,IN,USA,40.233000,-85.400000,0.0629450827542589,7.1928779878855265,14.098040856255631,0.0,48127.16660158668,3.9139252456598186,7.987534329433217,3.6789922617530775,4.308542067680139
Evansville Regional Ap,IN,USA,38.050000,-87.533000,0.04394972879758963,10.376327826508994,20.33760253995763,0.0,67069.87968054475,2.732794136634123,5.7434393227762826,2.639926868174155,3.103512454602128
Fort Wayne Intl Ap,IN,USA,41.000000,-85.200000,0.05579830175466831,8.132450109445927,15.939602214514014,0.0,53447.76914171047,3.4695384031052754,7.16848955621235,3.31275772542236,3.8557318307899897
Grissom Arb,IN,USA,40.650000,-86.150000,0.05977925384221861,7.580843998247285,14.858454236564677,0.0,51216.84390308635,3.717074003909153,7.563642255651339,3.457055964557367,4.106586291093972
Huntingburg,IN,USA,38.250000,-86.950000,0.04453848638894399,10.23597617673248,20.06251330639566,0.0,66196.82837427026,2.769403083664537,5.815666263956133,2.674744066756203,3.14092219719993
Indianapolis Intl Ap,IN,USA,39.717000,-86.267000,0.051062163914170934,8.902273941411275,17.4484569251661,0.0,58268.535664465024,3.1750453521831488,6.5936168107968385,3.038681777725992,3.554935033070847
Lafayette Purdue Univ Ap,IN,USA,40.417000,-86.933000,0.06157575072031687,7.3553079297010395,14.416403542214038,0.0,48936.3696726191,3.8287801797893026,7.840155022941559,3.618157226932803,4.221997796008757
Monroe Co,IN,USA,39.133000,-86.617000,0.06642950779103346,6.809390496415756,13.346405372974882,0.0,45369.508238858165,4.130586794446461,8.432955800705138,3.9026089992753454,4.5303468014297925
South Bend Michiana Rgnl Ap,IN,USA,41.700000,-86.333000,0.057407223077436516,7.900203389747155,15.484398643904424,0.0,52345.172561879204,3.5695811309550027,7.339916876552524,3.3825373857258265,3.9573794908266966
Terre Haute Hulman Regional A,IN,USA,39.450000,-87.300000,0.06320919006052689,7.161797553403143,14.03712320467016,0.0,47437.57033797776,3.9303474379635617,8.058667698389682,3.732473372850558,4.326194325539124
Chanute Martin Johnson Ap,KS,USA,37.667000,-95.483000,0.04310612363958254,10.583278595921476,20.743226048006093,0.0,66162.34418840939,2.6803387679092423,5.72802810180249,2.676138156298385,3.051889945504105
Concordia Blosser Muni Ap,KS,USA,39.550000,-97.650000,0.039571855855722225,11.554125261205314,22.646085511962415,0.0,74039.19579021927,2.4605779971088078,5.21701155412332,2.3914306520180957,2.8255809021052243
Dodge City Regional Ap,KS,USA,37.767000,-99.967000,0.03433485570621442,13.37198368743753,26.209088027377557,0.0,81830.90198496231,2.1349413278124123,4.658432710848411,2.1637256921173,2.4947070187311104
Emporia Municipal Ap,KS,USA,38.333000,-96.183000,0.04328849789435483,10.536896149883656,20.652316453771967,0.0,65396.0435800801,2.691678799070983,5.7714478992490745,2.707496676615925,3.0639512226331496
Fort Riley Marshall Aaf,KS,USA,39.050000,-96.767000,0.04581429701956266,9.944108794863235,19.49045323793194,0.0,64484.94383883957,2.848732988676406,5.967635750867274,2.7457505006753355,3.2218852501919386
Garden City Municipal Ap,KS,USA,37.933000,-100.717000,0.03349324341608298,13.716822001866358,26.88497112365806,0.0,83092.93783346417,2.0826098756120395,4.57248225098412,2.1308625370206067,2.4416197139635134
Goodland Renner Field,KS,USA,39.367000,-101.700000,0.032787625903680895,14.022739162957034,27.484568759395785,0.0,83832.15640247917,2.038734578690878,4.509385210463197,2.1120729538341343,2.397312256629063
Great Bend (awos),KS,USA,38.350000,-98.867000,0.03340951019484215,13.752868341882275,26.95562195008926,0.0,83478.8460062722,2.077403343915285,4.557198560847064,2.121011942259804,2.4361866185872607
Hays Muni (awos),KS,USA,38.850000,-99.267000,0.03585480713137663,12.78754172926871,25.063581789366673,0.0,79332.27181276362,2.2294519074289987,4.822658795361394,2.2318737907452544,2.59078500461614
Hill City Municipal Ap,KS,USA,39.383000,-99.833000,0.03856932472429654,11.862909804322591,23.251303216472277,0.0,73395.55027140907,2.398240611356759,5.176128246238507,2.4124023801385617,2.763725866099946
Hutchinson Municipal Ap,KS,USA,38.067000,-97.867000,0.03681360508472382,12.44449085831743,24.39120208230216,0.0,77593.45308668683,2.289069964168127,4.933441964849116,2.2818885637155324,2.6515534011335844
Liberal Muni,KS,USA,37.033000,-100.967000,0.03167841720408931,14.529432419564188,28.47768754234581,0.0,89024.1036992933,1.9697639817502732,4.314404115918119,1.988895536820963,2.3255085790971557
Manhattan Rgnl,KS,USA,39.133000,-96.667000,0.043235783302940124,10.550863570040029,20.679692597278457,0.0,67206.52671341122,2.688401005776817,5.693555138885099,2.6345592699005684,3.05899586898453
Mcconnell Afb,KS,USA,37.617000,-97.267000,0.042705379696807634,10.68543450551679,20.94345163081291,0.0,68766.15075937932,2.6554205095474988,5.599448332188539,2.574807255758593,3.0246410764299463
Newton (awos),KS,USA,38.050000,-97.283000,0.038040546351005934,12.032450976021423,23.583603913001987,0.0,74856.90110523312,2.365361172105549,5.09507095321583,2.3653077039201182,2.729763249295712
Olathe Johnson Co Industrial,KS,USA,38.833000,-94.883000,0.04036807178120758,11.320141060127805,22.187476477850495,0.0,70296.92908976377,2.5100867033554874,5.39675630240247,2.518738610994118,2.878017691408352
Olathe Johnson Co.,KS,USA,38.850000,-94.733000,0.040748802627687146,11.211717163193857,21.97496563985996,0.0,70872.23201274753,2.5337605473895866,5.399514148475214,2.498292865186342,2.9012212832888724
Russell Municipal Ap,KS,USA,38.883000,-98.817000,0.04019971605487593,11.368554507322955,22.28236683435299,0.0,71484.83890884761,2.4996183442921853,5.343469817395944,2.476883160414231,2.8665866569817124
Salina Municipal Ap,KS,USA,38.817000,-97.667000,0.039967937696102684,11.436532557118154,22.41560381195158,0.0,73115.2266771187,2.485206365943665,5.272555862839241,2.421651512116888,2.8509043507223533
Topeka Forbes Field,KS,USA,38.950000,-95.667000,0.04082926665934098,11.18950270993162,21.931425311465976,0.0,71439.17035253017,2.538763800877822,5.384235074101717,2.478466542740855,2.905768531360862
Topeka Municipal Ap,KS,USA,39.067000,-95.633000,0.041636687717039184,10.967692515164005,21.49667732972145,0.0,69545.40136299418,2.5889692422454966,5.503483038378655,2.5459567899639866,2.9575262484146685
Wichita Col. Jabara,KS,USA,37.750000,-97.217000,0.0347750937249972,13.195500814683285,25.86318159677924,0.0,80353.38046955958,2.162315327820326,4.726507886754153,2.2035117878141017,2.5229960989400504
Wichita Mid-continent Ap,KS,USA,37.650000,-97.433000,0.03686747989003405,12.426831041314031,24.3565888409755,0.0,77058.41253756089,2.2924198995623173,4.953000150778895,2.297732405881308,2.6552677448975874
Bowling Green Warren Co Ap,KY,USA,36.983000,-86.433000,0.05840448054051478,7.761634402797407,15.212803429482918,0.0,51220.31585840745,3.631590600009209,7.477919126892582,3.4568216294070107,4.021097497485571
Cincinnati Northern Ky Ap,KY,USA,39.050000,-84.667000,0.05137904421355814,8.845931461342833,17.338025664231953,0.0,57932.85513013384,3.194748969199045,6.6313324026186145,3.0562887912214753,3.575043611397139
Fort Campbell Aaf,KY,USA,36.667000,-87.483000,0.0554070349079214,8.190201623008342,16.05279518109635,0.0,54212.16972028065,3.4452094305745526,7.096375898857556,3.266047378575761,3.830328520281795
Fort Knox Godman Aaf,KY,USA,37.900000,-85.967000,0.05510699943296523,8.23537637023656,16.141337685663657,0.0,54717.77607068466,3.426553224741778,7.046846510338769,3.2358683143665603,3.8109781959722087
Henderson City,KY,USA,37.817000,-87.683000,0.04481413339943623,10.17156612847175,19.93626961180463,0.0,66387.69940625704,2.786542814776945,5.824938986647103,2.66705393144688,3.1578850552002233
Jackson Julian Carroll Ap,KY,USA,37.583000,-83.317000,0.05016419201791985,9.063431321432526,17.764325390007752,0.0,60002.62641599521,3.119209459674256,6.447942583618278,2.9508632687624847,3.4970793148557933
Lexington Bluegrass Ap,KY,USA,38.033000,-84.600000,0.051768078961040506,8.777950846818694,17.20478365976464,0.0,57582.404266445075,3.2189391497974986,6.674551173213203,3.0748895634562112,3.5996616097569913
London-corbin Ap,KY,USA,37.083000,-84.083000,0.05293085979511931,8.580736638894312,16.81824381223285,0.0,55781.965270672204,3.2912408620605187,6.848381621012432,3.174135639249182,3.67424598176325
Louisville Bowman Field,KY,USA,38.233000,-85.667000,0.060166382515811336,7.530592799463686,14.759961886948824,0.0,49694.45440151932,3.741145664833149,7.696056459191292,3.562962653331518,4.133093805859774
Louisville Standiford Field,KY,USA,38.183000,-85.733000,0.047546588468316955,9.57512349937254,18.767242058770176,0.0,62984.47498134094,2.9564468709599483,6.142265558512825,2.81116196241728,3.3311035960955455
Paducah Barkley Regional Ap,KY,USA,37.050000,-88.767000,0.04532329241065474,10.053634269337941,19.705123167902364,0.0,64985.45797747349,2.818202322094512,5.915471115288581,2.7246029258984055,3.1908681893901756
Somerset(awos),KY,USA,38.000000,-84.600000,0.04758119697481523,9.56666400770041,18.750661455092803,0.0,62236.60316530293,2.958598827894011,6.178974997367867,2.8449424921543067,3.3340325052135604
Alexandria Esler Regional Ap,LA,USA,31.400000,-92.300000,0.0456715740427221,9.975688658233784,19.552349770138218,0.0,64325.92087536387,2.8398584739764603,5.965705238536513,2.7525383817791322,3.2131668567573803
Barksdale Afb,LA,USA,32.500000,-93.667000,0.04372387783772261,10.431338674206748,20.445423801445227,0.0,68553.4048309495,2.718750723949592,5.670952872557184,2.5827977992254074,3.088155073331776
Baton Rouge Ryan Arpt,LA,USA,30.533000,-91.150000,0.043710552318433106,10.434446410763993,20.451514965097427,0.0,67427.91550066943,2.7179221431601706,5.71422718141415,2.6259091283030096,3.08831805311114
England Afb,LA,USA,31.317000,-92.550000,0.037940117930553,12.065541239527313,23.64846082947353,0.0,78204.43456943116,2.3591165329217856,4.985250996941948,2.2640610596482524,2.7211899372936954
Fort Polk Aaf,LA,USA,31.050000,-93.183000,0.0464385849619396,9.808073055813063,19.223823189393602,0.0,64962.84510926996,2.8875512129334044,5.985790222945111,2.7255513294347082,3.2602388935104027
Houma-terrebonne,LA,USA,29.567000,-90.667000,0.04308380908262431,10.5901309456674,20.756656653508106,0.0,68563.6330104205,2.6789512487575795,5.630759239745858,2.582412503409852,3.0483467363360064
Lafayette Regional Ap,LA,USA,30.200000,-91.983000,0.0396489940981245,11.531417466258027,22.601578233865734,0.0,74157.44032250528,2.4653744530213815,5.217907160702705,2.387617505064832,2.8302896556378725
Lake Charles Regional Arpt,LA,USA,30.117000,-93.233000,0.04403611881447862,10.356358423389993,20.298462509844388,0.0,67178.96992028774,2.738165867884281,5.744425550756352,2.635639963706814,3.1087855870495376
Lake Charles Wb Airp,LA,USA,30.217000,-93.167000,0.04298521238861908,10.615039222192035,20.80547687549639,0.0,69321.7576702969,2.6728205063243347,5.59573689151993,2.5541704645118233,3.0415664270081066
Monroe Regional Ap,LA,USA,32.517000,-92.033000,0.04269561948461732,10.688228264408675,20.948927398241004,0.0,69960.85740645244,2.6548136195535053,5.553860774906042,2.5308378840200754,3.023022890885967
New Iberia Naas,LA,USA,30.033000,-91.883000,0.045608095173529484,9.990457040779045,19.581295799926927,0.0,66205.37596752346,2.835911357890063,5.881821267332729,2.674398738458129,3.2074225288746
New Orleans Alvin Callender F,LA,USA,29.817000,-90.017000,0.047207307654758605,9.645088624243446,18.90437370351715,0.0,64702.48779185032,2.93535038997289,6.044809019689867,2.736518699625589,3.3082903200642786
New Orleans Intl Arpt,LA,USA,30.000000,-90.250000,0.0437506309759998,10.424898496878658,20.43280105388217,0.0,67679.13294695981,2.720414234087668,5.706748020270926,2.616162058830165,3.0905859614407616
New Orleans Lakefront Ap,LA,USA,30.050000,-90.033000,0.058027541914192626,7.812816180031418,15.313119712861578,0.0,51512.60760658508,3.6081525562244976,7.43441536155529,3.437207043334108,3.9972083182211824
Patterson Memorial,LA,USA,29.717000,-91.333000,0.04020422712027852,11.368588657918778,22.282433769520804,0.0,74900.55626987971,2.499898842338918,5.228198317663483,2.3639291058891154,2.8642692117743676
Shreveport Downtown,LA,USA,32.533000,-93.750000,0.039662687571165534,11.52708461771939,22.593085850730006,0.0,75064.18279761905,2.466225913175073,5.1892539340684,2.3587761690061844,2.8304777650622155
Shreveport Regional Arpt,LA,USA,32.450000,-93.817000,0.04048079598249457,11.289485677384846,22.1273919276743,0.0,72545.48389419462,2.5170958941915123,5.323901461613661,2.4406701538828433,2.883231307730818
Barnstable Muni Boa,MA,USA,41.667000,-70.283000,0.058796223718415835,7.709268675446695,15.110166603875522,0.0,51029.45566280096,3.655949190811097,7.515504255641022,3.4697507965101906,4.0457534591308315
Beverly Muni,MA,USA,42.583000,-70.917000,0.06198354172857544,7.306201877253841,14.320155679417528,0.0,48967.760633342725,3.8541366246828206,7.863138692900211,3.61583779884398,4.247300894056232
Boston Logan Int'l Arpt,MA,USA,42.367000,-71.017000,0.054675883877940146,8.302421444055163,16.27274603034812,0.0,54643.47965700655,3.399746459530318,7.024540601785793,3.2402679787443542,3.7842726230414385
Chicopee Falls Westo,MA,USA,42.200000,-72.533000,0.0661621633063316,6.837400358544969,13.40130470274814,0.0,46219.834719202096,4.113963314387698,8.342883123758702,3.8308111528553312,4.512071970903371
Lawrence Muni,MA,USA,42.717000,-71.117000,0.06344717229378358,7.134841493718071,13.984289327687419,0.0,47428.06246909958,3.9451451732274627,8.074230887900196,3.733221617470903,4.341009270429293
Marthas Vineyard,MA,USA,41.400000,-70.617000,0.06883305111872799,6.567996085150126,12.873272326894247,0.0,43391.84347316688,4.280039118562507,8.764367421486433,4.0804773244613175,4.683890097025117
Nantucket Memorial Ap,MA,USA,41.250000,-70.067000,0.05705019369627293,7.949657880010684,15.581329444820941,0.0,52825.32644756703,3.5473810440342506,7.286264253121114,3.351791993242291,3.9344722598788233
New Bedford Rgnl,MA,USA,41.667000,-70.950000,0.05245018443477811,8.66101424983279,16.97558792967227,0.0,57124.807678334786,3.261352468154503,6.742162279854417,3.099520832551236,3.642641447303182
North Adams,MA,USA,42.700000,-73.167000,0.06199700465424705,7.304646486379588,14.317107113303992,0.0,47333.884339674856,3.8549737494010814,7.991658113410823,3.7406494271844974,4.251008686226325
Norwood Memorial,MA,USA,42.183000,-71.183000,0.06614938018214044,6.839093070916208,13.404622418995768,0.0,46189.15646196297,4.113168459725492,8.344691160747509,3.833355523970692,4.511335636776818
Otis Angb,MA,USA,41.650000,-70.517000,0.059499157913025486,7.616789707527048,14.928907826753015,0.0,50944.41951781617,3.6996576390319245,7.565137590031769,3.4755424740956458,4.089595115936124
Plymouth Municipal,MA,USA,41.917000,-70.733000,0.06472370364658278,6.991655354359817,13.703644494545241,0.0,46395.49678225724,4.024519892744517,8.238601967795761,3.816307013735332,4.422294954060429
Provincetown (awos),MA,USA,42.067000,-70.217000,0.057751060625304135,7.851349087876105,15.388644212237166,0.0,52065.32713790502,3.590960949681411,7.379895584734978,3.400718118331933,3.9791774664030455
Westfield Barnes Muni Ap,MA,USA,42.150000,-72.717000,0.07419573593444466,6.08684946960456,11.930224960424937,0.0,41587.470002219125,4.613490860403769,9.278932107614185,4.257518325718881,5.021413781895303
Worchester Regional Arpt,MA,USA,42.267000,-71.883000,0.05801764775969854,7.815976724408715,15.319314379841082,0.0,52053.529433469565,3.607537337698055,7.397260456533086,3.401488874716551,3.995771581816536
Andrews Afb,MD,USA,38.817000,-76.867000,0.05269847547632139,8.619555064378583,16.894327926182022,0.0,57328.1170164513,3.276791205117664,6.746356026520303,3.088528662172668,3.6578273643476353
Baltimore Blt-washngtn Int'l,MD,USA,39.167000,-76.683000,0.047555272145795455,9.572977764372432,18.763036418169968,0.0,61577.45620149621,2.9569868220255615,6.208516641205274,2.875395717673228,3.333120923532046
Hagerstown Rgnl Ric,MD,USA,39.700000,-77.733000,0.061262558896013466,7.393913026036683,14.4920695310319,0.0,49051.9160273429,3.8093059121541173,7.811961840056201,3.6096343381252027,4.202327501930998
Patuxent River Nas,MD,USA,38.300000,-76.417000,0.045828379978109034,9.941073850259114,19.484504746507863,0.0,64993.049597779565,2.8496086670388197,5.946551889207329,2.724284674651524,3.2222672145558047
Salisbury Wicomico Co Ap,MD,USA,38.333000,-75.517000,0.04732123426671997,9.620307056727219,18.85580183118535,0.0,63119.53306301691,2.9424343467046477,6.122099599322297,2.8051468745040555,3.316952724818241
Auburn-lewiston,ME,USA,44.050000,-70.283000,0.050506416671100805,9.000787854846285,17.641544195498717,0.0,57921.306328413855,3.140488988609048,6.57769582353805,3.056898176861194,3.5207976466768556
Augusta Airport,ME,USA,44.317000,-69.800000,0.06847305668209801,6.603070688114565,12.942018548704548,0.0,43780.45291550516,4.257654664492854,8.704930365612807,4.044257772355769,4.660672593257037
Bangor International Ap,ME,USA,44.800000,-68.817000,0.06309000926922595,7.1757273161565385,14.064425539666814,0.0,47556.51404111378,3.9229367763604697,8.041707047564445,3.7231380950185486,4.318568952545896
Bar Harbor (awos),ME,USA,44.450000,-68.367000,0.0595102991441837,7.615202821228988,14.925797529608817,0.0,49223.80340943419,3.7003504007853425,7.690111760876914,3.5970296775088677,4.093082083368047
Caribou Municipal Arpt,ME,USA,46.867000,-68.033000,0.06697390028285226,6.75352916254917,13.236917158596373,0.0,43860.79955182123,4.164437119587753,8.6041339477367,4.036849294378248,4.567284653358453
Houlton Intl Arpt,ME,USA,46.117000,-67.800000,0.06950666290701912,6.503744736040452,12.747339682639286,0.0,41775.128150710654,4.321924299558449,8.967800506037872,4.238393163714001,4.729407342323871
Millinocket Municipal Ap,ME,USA,45.650000,-68.683000,0.06296567362107436,7.189945118696292,14.092292432644731,0.0,46382.3476604888,3.9152055857584034,8.130394442646057,3.817388911913641,4.313005530732417
Naval Air Station,ME,USA,43.900000,-69.933000,0.0666544724532405,6.786529743629483,13.301598297513786,0.0,44261.72227125236,4.144575097142494,8.5468652122867,4.000283592516331,4.546581619770369
Northern Aroostook,ME,USA,47.283000,-68.317000,0.06568136625053132,6.888586224343232,13.501628999712734,0.0,43874.333651692825,4.084067353458038,8.52249027959482,4.035604033369287,4.486886246225532
Portland Intl Jetport,ME,USA,43.650000,-70.300000,0.05138463719463828,8.844956170177323,17.336114093547554,0.0,56854.47666593231,3.1950967407626085,6.690983056005397,3.114258372671348,3.5767246833340494
Presque Isle Municip,ME,USA,46.683000,-68.050000,0.05294844908948303,8.577835059301687,16.812556716231306,0.0,55728.417322468194,3.2923345643840545,6.852595408590799,3.177185575959673,3.675409832631127
Rockland Knox(awos),ME,USA,44.067000,-69.100000,0.05586638325352585,8.121386279248842,15.917917107327732,0.0,53162.66896851754,3.4737717107042374,7.190897059389149,3.33052331249747,3.8603737468916792
Sanford Muni (awos),ME,USA,43.400000,-70.717000,0.05424254294305711,8.368859875362665,16.402965355710823,0.0,54781.2056595888,3.372801320199291,6.989261719016214,3.2321216019715764,3.7571401170446372
Waterville (awos),ME,USA,44.533000,-69.683000,0.04842984817738926,9.3951161082922,18.414427572252713,0.0,59718.266651376696,3.011367959670064,6.354475325387677,2.9649143359898464,3.3895609893978307
Wiscasset,ME,USA,43.967000,-69.717000,0.06503589953640039,6.957683864121922,13.637060373678967,0.0,45669.02645957192,4.0439322331733765,8.32011752728582,3.877013972739438,4.443103554546383
Alpena County Regional Ap,MI,USA,45.067000,-83.583000,0.055712664900389,8.145233186615044,15.964657045765488,0.0,52506.08734423175,3.4642135035061883,7.223944419434416,3.3721709833120506,3.8517734361223654
Ann Arbor Municipal,MI,USA,42.217000,-83.750000,0.05984135944667575,7.572320794473189,14.84174875716745,0.0,49841.43450292272,3.7209357303942983,7.665097871776483,3.552455661175157,4.112642210601327
Battle Creek Kellogg Ap,MI,USA,42.300000,-85.250000,0.06149047981049188,7.365682495883494,14.436737691931647,0.0,49602.277461667385,3.823478034616385,7.785162228562417,3.5695837672981745,4.215578461264243
Benton Harbor Ross,MI,USA,42.133000,-86.433000,0.05753318916149462,7.881348302936104,15.447442673754763,0.0,51310.140847121824,3.5774137020617354,7.417551443932734,3.4507700311544465,3.9667814127782877
Cadillac Wexford Co Ap,MI,USA,44.283000,-85.417000,0.05971563019494575,7.588941565125081,14.874325467645159,0.0,49789.64166840431,3.713117885521727,7.661060395150352,3.556151035805108,4.104909359345244
Chippewa Co Intl,MI,USA,46.250000,-84.467000,0.0645358371092814,7.012851146983938,13.74518824808852,0.0,45876.97857856401,4.012838351455118,8.271045677881292,3.8594402017851164,4.411605476096176
Detroit City Airport,MI,USA,42.400000,-83.000000,0.06570076419331339,6.886686940110199,13.497906402615989,0.0,46674.90886027263,4.085273517540227,8.275984462901956,3.7934613346644475,4.482523128237508
Detroit Metropolitan Arpt,MI,USA,42.217000,-83.350000,0.057419446895280654,7.8991709205553935,15.48237500428857,0.0,52599.62511500614,3.5703412079485513,7.3239374884021275,3.3661742721931343,3.9577632162089933
Detroit Willow Run Ap,MI,USA,42.233000,-83.533000,0.05683274135287741,7.980630516660485,15.64203581265455,0.0,52776.19604096171,3.533859857321917,7.275935075680023,3.3549122369091946,3.9210228387708286
Escanaba (awos),MI,USA,45.750000,-87.033000,0.05411461776267823,8.389416422215161,16.443256187541717,0.0,54681.85955396797,3.3648469324833323,6.987314503806349,3.237993715858276,3.7493207879480726
Flint Bishop Intl Arpt,MI,USA,42.967000,-83.750000,0.06088353814789277,7.441495659268259,14.585331492165787,0.0,49339.04357129615,3.7857384020359723,7.766905038667508,3.588628188300621,4.178276850366887
Grand Rapids Kent County Int',MI,USA,42.883000,-85.517000,0.056367818515982854,8.048583737631425,15.775224125757592,0.0,52942.73272818297,3.504950955323814,7.236230256506614,3.344359043189443,3.891871213317171
Hancock Houghton Co Ap,MI,USA,47.167000,-88.500000,0.057897150435145206,7.830935589817796,15.34863375604288,0.0,49446.63175943411,3.6000448140573287,7.573223578634765,3.5808199067228115,3.992403671911953
Houghton Lake Roscommon Co Ar,MI,USA,44.367000,-84.683000,0.05935668300104719,7.635901551846803,14.966367041619735,0.0,49364.30150750807,3.6907985490051143,7.670086785617615,3.5867920201490713,4.083294765468543
Howell,MI,USA,42.633000,-83.983000,0.05474688243033073,8.2905563178087,16.24949038290505,0.0,54739.64320906171,3.404161149517965,7.023132056946898,3.2345756670859562,3.788556389860942
Iron Mountain Ford,MI,USA,45.817000,-88.117000,0.06173835024169872,7.335707144692235,14.377986003596781,0.0,48143.64669794766,3.8388906180288265,7.911211379961491,3.6777329051150205,4.233478474846471
Ironwood (awos),MI,USA,46.533000,-90.133000,0.054002945971317655,8.40703471874386,16.477788048737967,0.0,53535.977064977524,3.357903180496532,7.051270578505035,3.3072995092947246,3.7439710692103105
Jackson Reynolds Field,MI,USA,42.267000,-84.467000,0.0649699531691356,6.964871935664904,13.651148993903211,0.0,46807.33605467054,4.039831688056852,8.219563359480926,3.782728906572898,4.436834452908029
Kalamazoo Battle Cr,MI,USA,42.233000,-85.550000,0.06337437944420071,7.143334558858341,14.000935735362349,0.0,47238.3493317013,3.9406189138404004,8.085042361719319,3.7482145140556393,4.336827847663679
Lansing Capital City Arpt,MI,USA,42.783000,-84.583000,0.05764010363370706,7.867465725045338,15.420232821088861,0.0,52174.6377259069,3.5840616439439046,7.365707610052445,3.393593319754193,3.972114290298251
Manistee (awos),MI,USA,44.267000,-86.250000,0.056391264780046746,8.044367491610709,15.76696028355699,0.0,52490.0027600682,3.5064088440233068,7.26719686375475,3.3732043203630924,3.893992543391658
Menominee (awos),MI,USA,45.133000,-87.633000,0.06112948005812696,7.4102618443783514,14.524113214981568,0.0,48567.513443170574,3.8010310700143344,7.8405167275886,3.6456360289093497,4.19488069867925
Mount Clemens Selfridge Fld,MI,USA,42.617000,-82.833000,0.06837871465585932,6.61267161136537,12.960836358276124,0.0,44675.429319252915,4.251788477301332,8.61618291915648,3.96323992361207,4.652942995544409
Muskegon County Arpt,MI,USA,43.167000,-86.233000,0.05407316773447697,8.396309462653393,16.45676654680065,0.0,54158.09192035342,3.362269569729778,7.016772244879899,3.2693085778593565,3.747463667020543
Oakland Co Intl,MI,USA,42.667000,-83.417000,0.06882663329755907,6.568830428904408,12.87490764065264,0.0,44017.80131483228,4.279640058442223,8.704607204726441,4.022450778381445,4.682156426344997
Oscoda Wurtsmith Afb,MI,USA,44.450000,-83.400000,0.05759767788792072,7.872887490262729,15.430859480914949,0.0,51672.74869609329,3.5814236110709103,7.39678904629628,3.4265546776396576,3.970234368656622
